$GNRMC,022155.000,A,3110.005930,N,12117.313431,E,0.080,0.00,030919,,E,R,V*68
$GNGGA,022155.000,3110.005930,N,12117.313431,E,4,26,0.57,16.006,M,0,M,1,2525*51
$GNRMC,022156.000,A,3110.005929,N,12117.313433,E,0.041,0.00,030919,,E,R,V*6C
$GNGGA,022156.000,3110.005929,N,12117.313433,E,4,26,0.57,16.013,M,0,M,1,2525*5C
$GNRMC,022157.000,A,3110.005929,N,12117.313433,E,0.063,0.00,030919,,E,R,V*6D
$GNGGA,022157.000,3110.005929,N,12117.313433,E,4,26,0.57,16.004,M,0,M,1,2525*5B
$GNRMC,022158.000,A,3110.005931,N,12117.313429,E,0.123,0.00,030919,,E,R,V*65
$GNGGA,022158.000,3110.005931,N,12117.313429,E,4,26,0.57,16.008,M,0,M,1,2525*5A
$GNRMC,022159.000,A,3110.005930,N,12117.313435,E,0.053,0.00,030919,,E,R,V*6E
$GNGGA,022159.000,3110.005930,N,12117.313435,E,4,26,0.57,16.015,M,0,M,1,2525*5B
$GNRMC,022200.000,A,3110.005931,N,12117.313428,E,0.109,0.00,030919,,E,R,V*62
$GNGGA,022200.000,3110.005931,N,12117.313428,E,4,26,0.57,15.997,M,0,M,1,2525*59
$GNRMC,022201.000,A,3110.005930,N,12117.313430,E,0.031,0.00,030919,,E,R,V*61
$GNGGA,022201.000,3110.005930,N,12117.313430,E,4,25,0.61,16.005,M,0,M,1,2525*57
$GNRMC,022202.000,A,3110.005930,N,12117.313430,E,0.066,0.00,030919,,E,R,V*60
$GNGGA,022202.000,3110.005930,N,12117.313430,E,4,26,0.57,16.005,M,0,M,1,2525*52
$GNRMC,022203.000,A,3110.005929,N,12117.313431,E,0.019,0.00,030919,,E,R,V*60
$GNGGA,022203.000,3110.005929,N,12117.313431,E,4,26,0.57,16.006,M,0,M,1,2525*59
$GNRMC,022204.000,A,3110.005926,N,12117.313442,E,0.015,0.00,030919,,E,R,V*60
$GNGGA,022204.000,3110.005926,N,12117.313442,E,4,26,0.57,16.011,M,0,M,1,2525*53
$GNRMC,022205.000,A,3110.005926,N,12117.313445,E,0.079,0.00,030919,,E,R,V*6C
$GNGGA,022205.000,3110.005926,N,12117.313445,E,4,25,0.61,16.022,M,0,M,1,2525*53
$GNRMC,022206.000,A,3110.005925,N,12117.313445,E,0.044,0.00,030919,,E,R,V*62
$GNGGA,022206.000,3110.005925,N,12117.313445,E,4,26,0.57,16.026,M,0,M,1,2525*51
$GNRMC,022207.000,A,3110.005924,N,12117.313445,E,0.039,0.00,030919,,E,R,V*68
$GNGGA,022207.000,3110.005924,N,12117.313445,E,4,26,0.57,16.013,M,0,M,1,2525*57
$GNRMC,022208.000,A,3110.005927,N,12117.313443,E,0.047,0.00,030919,,E,R,V*6B
$GNGGA,022208.000,3110.005927,N,12117.313443,E,4,25,0.61,16.025,M,0,M,1,2525*5E
$GNRMC,022209.000,A,3110.005931,N,12117.313430,E,0.029,0.00,030919,,E,R,V*61
$GNGGA,022209.000,3110.005931,N,12117.313430,E,4,26,0.57,16.008,M,0,M,1,2525*55
$GNRMC,022210.000,A,3110.005930,N,12117.313429,E,0.025,0.00,030919,,E,R,V*6C
$GNGGA,022210.000,3110.005930,N,12117.313429,E,4,26,0.57,15.999,M,0,M,1,2525*56
$GNRMC,022211.000,A,3110.005931,N,12117.313430,E,0.033,0.00,030919,,E,R,V*63
$GNGGA,022211.000,3110.005931,N,12117.313430,E,4,26,0.57,16.006,M,0,M,1,2525*52
$GNRMC,022212.000,A,3110.005929,N,12117.313434,E,0.047,0.00,030919,,E,R,V*6E
$GNGGA,022212.000,3110.005929,N,12117.313434,E,4,26,0.57,16.011,M,0,M,1,2525*5A
$GNRMC,022213.000,A,3110.005931,N,12117.313431,E,0.042,0.00,030919,,E,R,V*66
$GNGGA,022213.000,3110.005931,N,12117.313431,E,4,26,0.57,15.998,M,0,M,1,2525*5C
$GNRMC,022214.000,A,3110.005931,N,12117.313429,E,0.029,0.00,030919,,E,R,V*65
$GNGGA,022214.000,3110.005931,N,12117.313429,E,4,26,0.57,16.003,M,0,M,2,2525*59
$GNRMC,022215.000,A,3110.005930,N,12117.313429,E,0.077,0.00,030919,,E,R,V*6E
$GNGGA,022215.000,3110.005930,N,12117.313429,E,4,26,0.57,16.009,M,0,M,3,2525*52
$GNRMC,022216.000,A,3110.005924,N,12117.313436,E,0.043,0.00,030919,,E,R,V*61
$GNGGA,022216.000,3110.005924,N,12117.313436,E,4,26,0.57,16.040,M,0,M,4,2525*50
$GNRMC,022217.000,A,3110.005923,N,12117.313437,E,0.060,0.00,030919,,E,R,V*67
$GNGGA,022217.000,3110.005923,N,12117.313437,E,4,26,0.57,16.037,M,0,M,1,2525*52
$GNRMC,022218.000,A,3110.005922,N,12117.313433,E,0.094,0.00,030919,,E,R,V*66
$GNGGA,022218.000,3110.005922,N,12117.313433,E,4,25,0.61,16.042,M,0,M,1,2525*5C
$GNRMC,022219.000,A,3110.005920,N,12117.313430,E,0.044,0.00,030919,,E,R,V*6B
$GNGGA,022219.000,3110.005920,N,12117.313430,E,4,25,0.61,16.034,M,0,M,1,2525*5D
$GNRMC,022220.000,A,3110.005922,N,12117.313432,E,0.067,0.00,030919,,E,R,V*60
$GNGGA,022220.000,3110.005922,N,12117.313432,E,4,25,0.61,16.036,M,0,M,1,2525*55
$GNRMC,022221.000,A,3110.005923,N,12117.313431,E,0.031,0.00,030919,,E,R,V*60
$GNGGA,022221.000,3110.005923,N,12117.313431,E,4,25,0.61,16.022,M,0,M,1,2525*53
$GNRMC,022222.000,A,3110.005921,N,12117.313432,E,0.035,0.00,030919,,E,R,V*66
$GNGGA,022222.000,3110.005921,N,12117.313432,E,4,25,0.61,16.035,M,0,M,1,2525*57
$GNRMC,022223.000,A,3110.005924,N,12117.313431,E,0.076,0.00,030919,,E,R,V*66
$GNGGA,022223.000,3110.005924,N,12117.313431,E,4,25,0.61,16.027,M,0,M,1,2525*53
$GNRMC,022224.000,A,3110.005921,N,12117.313430,E,0.021,0.00,030919,,E,R,V*67
$GNGGA,022224.000,3110.005921,N,12117.313430,E,4,25,0.61,16.033,M,0,M,1,2525*55
$GNRMC,022225.000,A,3110.005921,N,12117.313432,E,0.046,0.00,030919,,E,R,V*65
$GNGGA,022225.000,3110.005921,N,12117.313432,E,4,25,0.61,16.038,M,0,M,1,2525*5D
$GNRMC,022226.000,A,3110.005922,N,12117.313431,E,0.049,0.00,030919,,E,R,V*69
$GNGGA,022226.000,3110.005922,N,12117.313431,E,4,25,0.61,16.039,M,0,M,1,2525*5F
$GNRMC,022227.000,A,3110.005920,N,12117.313437,E,0.021,0.00,030919,,E,R,V*62
$GNGGA,022227.000,3110.005920,N,12117.313437,E,4,25,0.61,16.049,M,0,M,1,2525*5D
$GNRMC,022228.000,A,3110.005922,N,12117.313431,E,0.066,293.61,030919,,E,R,V*65
$GNGGA,022228.000,3110.005922,N,12117.313431,E,4,25,0.61,16.036,M,0,M,1,2525*5E
$GNRMC,022229.000,A,3110.005925,N,12117.313430,E,0.150,0.00,030919,,E,R,V*69
$GNGGA,022229.000,3110.005925,N,12117.313430,E,4,26,0.57,16.032,M,0,M,1,2525*5B
$GNRMC,022230.000,A,3110.005923,N,12117.313431,E,0.035,0.00,030919,,E,R,V*64
$GNGGA,022230.000,3110.005923,N,12117.313431,E,4,26,0.57,16.042,M,0,M,1,2525*53
$GNRMC,022231.000,A,3110.005921,N,12117.313431,E,0.033,0.00,030919,,E,R,V*61
$GNGGA,022231.000,3110.005921,N,12117.313431,E,4,26,0.57,16.043,M,0,M,1,2525*51
$GNRMC,022232.000,A,3110.005921,N,12117.313430,E,0.055,0.00,030919,,E,R,V*63
$GNGGA,022232.000,3110.005921,N,12117.313430,E,4,26,0.57,16.047,M,0,M,1,2525*57
$GNRMC,022233.000,A,3110.005922,N,12117.313431,E,0.041,0.00,030919,,E,R,V*65
$GNGGA,022233.000,3110.005922,N,12117.313431,E,4,26,0.57,16.043,M,0,M,1,2525*50
$GNRMC,022234.000,A,3110.005922,N,12117.313432,E,0.096,0.00,030919,,E,R,V*6B
$GNGGA,022234.000,3110.005922,N,12117.313432,E,4,26,0.57,16.046,M,0,M,1,2525*51
$GNRMC,022235.000,A,3110.005923,N,12117.313432,E,0.124,0.00,030919,,E,R,V*63
$GNGGA,022235.000,3110.005923,N,12117.313432,E,4,26,0.57,16.041,M,0,M,1,2525*56
$GNRMC,022236.000,A,3110.005921,N,12117.313430,E,0.062,0.00,030919,,E,R,V*63
$GNGGA,022236.000,3110.005921,N,12117.313430,E,4,26,0.57,16.041,M,0,M,1,2525*55
$GNRMC,022237.000,A,3110.005922,N,12117.313433,E,0.053,0.00,030919,,E,R,V*60
$GNGGA,022237.000,3110.005922,N,12117.313433,E,4,26,0.57,16.054,M,0,M,1,2525*50
$GNRMC,022238.000,A,3110.005919,N,12117.313446,E,0.065,0.00,030919,,E,R,V*60
$GNGGA,022238.000,3110.005919,N,12117.313446,E,4,26,0.57,16.064,M,0,M,1,2525*56
$GNRMC,022239.000,A,3110.005918,N,12117.313447,E,0.191,134.07,030919,,E,R,V*6A
$GNGGA,022239.000,3110.005918,N,12117.313447,E,4,26,0.57,16.064,M,0,M,1,2525*57
$GNRMC,022240.000,A,3110.005922,N,12117.313430,E,0.033,0.00,030919,,E,R,V*65
$GNGGA,022240.000,3110.005922,N,12117.313430,E,4,26,0.57,16.049,M,0,M,1,2525*5F
$GNRMC,022241.000,A,3110.005921,N,12117.313435,E,0.025,0.00,030919,,E,R,V*65
$GNGGA,022241.000,3110.005921,N,12117.313435,E,4,26,0.57,16.054,M,0,M,1,2525*54
$GNRMC,022242.000,A,3110.005920,N,12117.313447,E,0.057,0.00,030919,,E,R,V*67
$GNGGA,022242.000,3110.005920,N,12117.313447,E,4,26,0.57,16.059,M,0,M,2,2525*5D
$GNRMC,022243.000,A,3110.005921,N,12117.313447,E,0.169,0.00,030919,,E,R,V*6B
$GNGGA,022243.000,3110.005921,N,12117.313447,E,4,26,0.57,16.062,M,0,M,3,2525*54
$GNRMC,022244.000,A,3110.005919,N,12117.313447,E,0.148,0.00,030919,,E,R,V*64
$GNGGA,022244.000,3110.005919,N,12117.313447,E,4,26,0.57,16.071,M,0,M,4,2525*5D
$GNRMC,022245.000,A,3110.005922,N,12117.313445,E,0.073,0.00,030919,,E,R,V*66
$GNGGA,022245.000,3110.005922,N,12117.313445,E,4,26,0.57,16.054,M,0,M,1,2525*54
$GNRMC,022246.000,A,3110.005922,N,12117.313432,E,0.058,0.00,030919,,E,R,V*6C
$GNGGA,022246.000,3110.005922,N,12117.313432,E,4,26,0.57,16.050,M,0,M,1,2525*53
$GNRMC,022247.000,A,3110.005923,N,12117.313431,E,0.093,162.56,030919,,E,R,V*6E
$GNGGA,022247.000,3110.005923,N,12117.313431,E,4,26,0.57,16.042,M,0,M,1,2525*53
$GNRMC,022248.000,A,3110.005922,N,12117.313432,E,0.150,0.00,030919,,E,R,V*6B
$GNGGA,022248.000,3110.005922,N,12117.313432,E,4,26,0.57,16.049,M,0,M,1,2525*55
$GNRMC,022249.000,A,3110.005925,N,12117.313430,E,0.057,0.00,030919,,E,R,V*69
$GNGGA,022249.000,3110.005925,N,12117.313430,E,4,26,0.57,16.047,M,0,M,1,2525*5F
$GNRMC,022250.000,A,3110.005921,N,12117.313437,E,0.048,0.00,030919,,E,R,V*6C
$GNGGA,022250.000,3110.005921,N,12117.313437,E,4,26,0.57,16.043,M,0,M,1,2525*50
$GNRMC,022251.000,A,3110.005952,N,12117.313525,E,0.570,67.55,030919,,E,R,V*54
$GNGGA,022251.000,3110.005952,N,12117.313525,E,4,26,0.57,16.046,M,0,M,1,2525*52
$GNRMC,022252.000,A,3110.006093,N,12117.313873,E,1.812,65.34,030919,,E,R,V*53
$GNGGA,022252.000,3110.006093,N,12117.313873,E,4,26,0.57,16.052,M,0,M,1,2525*5D
$GNRMC,022253.000,A,3110.006438,N,12117.314666,E,3.347,63.20,030919,,E,R,V*50
$GNGGA,022253.000,3110.006438,N,12117.314666,E,4,26,0.57,16.039,M,0,M,1,2525*59
$GNRMC,022254.000,A,3110.006868,N,12117.315643,E,3.312,60.01,030919,,E,R,V*58
$GNGGA,022254.000,3110.006868,N,12117.315643,E,4,26,0.57,16.035,M,0,M,1,2525*5D
$GNRMC,022255.000,A,3110.007334,N,12117.316651,E,3.652,60.49,030919,,E,R,V*57
$GNGGA,022255.000,3110.007334,N,12117.316651,E,4,26,0.57,16.036,M,0,M,1,2525*5C
$GNRMC,022256.000,A,3110.007784,N,12117.317617,E,3.225,63.26,030919,,E,R,V*56
$GNGGA,022256.000,3110.007784,N,12117.317617,E,4,26,0.57,16.029,M,0,M,1,2525*5D
$GNRMC,022257.000,A,3110.008228,N,12117.318571,E,3.522,60.82,030919,,E,R,V*5A
$GNGGA,022257.000,3110.008228,N,12117.318571,E,4,26,0.57,16.018,M,0,M,1,2525*5E
$GNRMC,022258.000,A,3110.008711,N,12117.319633,E,4.047,62.45,030919,,E,R,V*56
$GNGGA,022258.000,3110.008711,N,12117.319633,E,4,26,0.57,16.010,M,0,M,1,2525*52
$GNRMC,022259.000,A,3110.009294,N,12117.320951,E,4.934,61.28,030919,,E,R,V*5A
$GNGGA,022259.000,3110.009294,N,12117.320951,E,4,26,0.57,16.004,M,0,M,1,2525*5E
$GNRMC,022300.000,A,3110.009990,N,12117.322502,E,5.730,62.25,030919,,E,R,V*55
$GNGGA,022300.000,3110.009990,N,12117.322502,E,4,25,0.59,16.005,M,0,M,1,2525*58
$GNRMC,022301.000,A,3110.010756,N,12117.324226,E,6.111,62.61,030919,,E,R,V*59
$GNGGA,022301.000,3110.010756,N,12117.324226,E,4,26,0.57,16.008,M,0,M,1,2525*52
$GNRMC,022302.000,A,3110.011546,N,12117.326014,E,6.133,62.46,030919,,E,R,V*5C
$GNGGA,022302.000,3110.011546,N,12117.326014,E,4,26,0.57,16.008,M,0,M,1,2525*52
$GNRMC,022303.000,A,3110.012308,N,12117.327724,E,5.736,62.70,030919,,E,R,V*52
$GNGGA,022303.000,3110.012308,N,12117.327724,E,4,26,0.57,16.031,M,0,M,1,2525*53
$GNRMC,022304.000,A,3110.013119,N,12117.329498,E,6.603,61.70,030919,,E,R,V*5B
$GNGGA,022304.000,3110.013119,N,12117.329498,E,4,26,0.57,16.030,M,0,M,1,2525*5C
$GNRMC,022305.000,A,3110.014028,N,12117.331402,E,6.739,61.23,030919,,E,R,V*5A
$GNGGA,022305.000,3110.014028,N,12117.331402,E,4,26,0.57,16.047,M,0,M,1,2525*53
$GNRMC,022306.000,A,3110.014855,N,12117.333184,E,5.736,62.44,030919,,E,R,V*5C
$GNGGA,022306.000,3110.014855,N,12117.333184,E,4,26,0.57,16.041,M,0,M,1,2525*5D
$GNRMC,022307.000,A,3110.015490,N,12117.334743,E,5.142,65.35,030919,,E,R,V*57
$GNGGA,022307.000,3110.015490,N,12117.334743,E,4,26,0.57,16.023,M,0,M,1,2525*56
$GNRMC,022308.000,A,3110.015967,N,12117.336178,E,4.547,70.62,030919,,E,R,V*57
$GNGGA,022308.000,3110.015967,N,12117.336178,E,4,26,0.57,16.040,M,0,M,1,2525*55
$GNRMC,022309.000,A,3110.016247,N,12117.337490,E,4.019,79.11,030919,,E,R,V*5D
$GNGGA,022309.000,3110.016247,N,12117.337490,E,4,26,0.57,16.034,M,0,M,2,2525*5C
$GNRMC,022310.000,A,3110.016283,N,12117.338718,E,3.707,94.59,030919,,E,R,V*51
$GNGGA,022310.000,3110.016283,N,12117.338718,E,4,26,0.57,16.016,M,0,M,3,2525*51
$GNRMC,022311.000,A,3110.016056,N,12117.339878,E,3.637,107.70,030919,,E,R,V*60
$GNGGA,022311.000,3110.016056,N,12117.339878,E,4,26,0.57,16.031,M,0,M,3,2525*57
$GNRMC,022312.000,A,3110.015606,N,12117.340985,E,4.034,119.66,030919,,E,R,V*64
$GNGGA,022312.000,3110.015606,N,12117.340985,E,4,26,0.57,16.028,M,0,M,1,2525*53
$GNRMC,022313.000,A,3110.014821,N,12117.342116,E,4.840,135.58,030919,,E,R,V*67
$GNGGA,022313.000,3110.014821,N,12117.342116,E,4,26,0.57,16.045,M,0,M,1,2525*53
$GNRMC,022314.000,A,3110.013705,N,12117.343075,E,5.200,149.73,030919,,E,R,V*66
$GNGGA,022314.000,3110.013705,N,12117.343075,E,4,26,0.57,16.077,M,0,M,1,2525*5E
$GNRMC,022315.000,A,3110.012253,N,12117.344004,E,6.863,151.75,030919,,E,R,V*62
$GNGGA,022315.000,3110.012253,N,12117.344004,E,4,26,0.57,16.097,M,0,M,1,2525*57
$GNRMC,022316.000,A,3110.010493,N,12117.345126,E,7.214,151.03,030919,,E,R,V*63
$GNGGA,022316.000,3110.010493,N,12117.345126,E,4,26,0.57,16.053,M,0,M,1,2525*54
$GNRMC,022317.000,A,3110.008848,N,12117.346440,E,7.121,140.96,030919,,E,R,V*6E
$GNGGA,022317.000,3110.008848,N,12117.346440,E,4,26,0.57,16.042,M,0,M,1,2525*50
$GNRMC,022318.000,A,3110.007468,N,12117.348152,E,7.606,126.78,030919,,E,R,V*6A
$GNGGA,022318.000,3110.007468,N,12117.348152,E,4,26,0.57,16.111,M,0,M,1,2525*51
$GNRMC,022319.000,A,3110.006482,N,12117.350292,E,7.422,110.80,030919,,E,R,V*6E
$GNGGA,022319.000,3110.006482,N,12117.350292,E,4,26,0.57,16.262,M,0,M,1,2525*54
$GNRMC,022320.000,A,3110.005822,N,12117.352608,E,7.203,104.77,030919,,E,R,V*6C
$GNGGA,022320.000,3110.005822,N,12117.352608,E,4,25,0.61,16.085,M,0,M,2,2525*50
$GNRMC,022321.000,A,3110.005344,N,12117.354823,E,6.746,104.94,030919,,E,R,V*6F
$GNGGA,022321.000,3110.005344,N,12117.354823,E,4,26,0.57,16.060,M,0,M,1,2525*55
$GNRMC,022322.000,A,3110.004923,N,12117.356908,E,6.915,102.62,030919,,E,R,V*6B
$GNGGA,022322.000,3110.004923,N,12117.356908,E,4,26,0.57,16.008,M,0,M,1,2525*58
$GNRMC,022323.000,A,3110.004428,N,12117.359197,E,7.566,105.80,030919,,E,R,V*6F
$GNGGA,022323.000,3110.004428,N,12117.359197,E,4,26,0.57,16.022,M,0,M,1,2525*56
$GNRMC,022324.000,A,3110.003708,N,12117.361451,E,7.112,112.00,030919,,E,R,V*63
$GNGGA,022324.000,3110.003708,N,12117.361451,E,4,26,0.57,16.072,M,0,M,1,2525*56
$GNRMC,022325.000,A,3110.002885,N,12117.363307,E,6.204,121.37,030919,,E,R,V*6E
$GNGGA,022325.000,3110.002885,N,12117.363307,E,4,26,0.57,16.064,M,0,M,1,2525*5D
$GNRMC,022326.000,A,3110.001805,N,12117.364962,E,6.828,131.81,030919,,E,R,V*60
$GNGGA,022326.000,3110.001805,N,12117.364962,E,4,26,0.57,16.075,M,0,M,1,2525*5B
$GNRMC,022327.000,A,3110.000427,N,12117.366623,E,7.287,137.34,030919,,E,R,V*62
$GNGGA,022327.000,3110.000427,N,12117.366623,E,4,26,0.57,16.055,M,0,M,1,2525*5D
$GNRMC,022328.000,A,3109.998837,N,12117.368137,E,7.523,143.68,030919,,E,R,V*6F
$GNGGA,022328.000,3109.998837,N,12117.368137,E,4,25,0.60,16.036,M,0,M,1,2525*51
$GNRMC,022329.000,A,3109.997042,N,12117.369436,E,7.745,149.55,030919,,E,R,V*68
$GNGGA,022329.000,3109.997042,N,12117.369436,E,4,24,0.61,16.086,M,0,M,1,2525*5B
$GNRMC,022330.000,A,3109.995116,N,12117.370725,E,8.358,151.26,030919,,E,R,V*61
$GNGGA,022330.000,3109.995116,N,12117.370725,E,4,24,0.61,15.986,M,0,M,1,2525*52
$GNRMC,022331.000,A,3109.993041,N,12117.371998,E,8.459,152.82,030919,,E,R,V*67
$GNGGA,022331.000,3109.993041,N,12117.371998,E,4,24,0.61,16.110,M,0,M,1,2525*5B
$GNRMC,022332.000,A,3109.990919,N,12117.373370,E,8.793,152.43,030919,,E,R,V*65
$GNGGA,022332.000,3109.990919,N,12117.373370,E,4,24,0.61,16.049,M,0,M,2,2525*5F
$GNRMC,022333.000,A,3109.988844,N,12117.374698,E,8.372,149.74,030919,,E,R,V*65
$GNGGA,022333.000,3109.988844,N,12117.374698,E,4,24,0.61,16.030,M,0,M,1,2525*57
$GNRMC,022334.000,A,3109.986675,N,12117.376086,E,9.361,149.90,030919,,E,R,V*62
$GNGGA,022334.000,3109.986675,N,12117.376086,E,4,24,0.61,16.082,M,0,M,1,2525*50
$GNRMC,022335.000,A,3109.984443,N,12117.377497,E,8.909,150.86,030919,,E,R,V*69
$GNGGA,022335.000,3109.984443,N,12117.377497,E,4,24,0.61,16.037,M,0,M,1,2525*5F
$GNRMC,022336.000,A,3109.982366,N,12117.378837,E,8.160,149.88,030919,,E,R,V*64
$GNGGA,022336.000,3109.982366,N,12117.378837,E,4,24,0.61,16.035,M,0,M,2,2525*52
$GNRMC,022337.000,A,3109.980484,N,12117.380065,E,7.333,150.62,030919,,E,R,V*63
$GNGGA,022337.000,3109.980484,N,12117.380065,E,4,24,0.61,16.039,M,0,M,2,2525*5E
$GNRMC,022338.000,A,3109.978815,N,12117.381131,E,6.267,151.61,030919,,E,R,V*6D
$GNGGA,022338.000,3109.978815,N,12117.381131,E,4,26,0.57,16.045,M,0,M,2,2525*5F
$GNRMC,022339.000,A,3109.977368,N,12117.381960,E,5.794,157.18,030919,,E,R,V*6C
$GNGGA,022339.000,3109.977368,N,12117.381960,E,4,26,0.57,16.015,M,0,M,1,2525*5A
$GNRMC,022340.000,A,3109.975771,N,12117.382604,E,6.395,163.11,030919,,E,R,V*6A
$GNGGA,022340.000,3109.975771,N,12117.382604,E,4,26,0.57,15.989,M,0,M,1,2525*5B
$GNRMC,022341.000,A,3109.973987,N,12117.383083,E,6.593,171.13,030919,,E,R,V*63
$GNGGA,022341.000,3109.973987,N,12117.383083,E,4,26,0.57,16.036,M,0,M,1,2525*5D
$GNRMC,022342.000,A,3109.972129,N,12117.383228,E,6.657,182.48,030919,,E,R,V*67
$GNGGA,022342.000,3109.972129,N,12117.383228,E,4,26,0.57,16.026,M,0,M,1,2525*51
$GNRMC,022343.000,A,3109.970303,N,12117.382874,E,6.625,196.58,030919,,E,R,V*6D
$GNGGA,022343.000,3109.970303,N,12117.382874,E,4,26,0.57,16.039,M,0,M,1,2525*54
$GNRMC,022344.000,A,3109.968732,N,12117.381982,E,5.874,214.05,030919,,E,R,V*66
$GNGGA,022344.000,3109.968732,N,12117.381982,E,4,26,0.57,16.044,M,0,M,1,2525*5D
$GNRMC,022345.000,A,3109.967619,N,12117.380743,E,5.325,230.68,030919,,E,R,V*60
$GNGGA,022345.000,3109.967619,N,12117.380743,E,4,26,0.57,16.058,M,0,M,1,2525*54
$GNRMC,022346.000,A,3109.966809,N,12117.379309,E,5.382,237.85,030919,,E,R,V*68
$GNGGA,022346.000,3109.966809,N,12117.379309,E,4,26,0.57,16.061,M,0,M,1,2525*5F
$GNRMC,022347.000,A,3109.966064,N,12117.377732,E,5.823,242.64,030919,,E,R,V*65
$GNGGA,022347.000,3109.966064,N,12117.377732,E,4,26,0.57,15.992,M,0,M,1,2525*59
$GNRMC,022348.000,A,3109.965226,N,12117.375989,E,6.633,240.21,030919,,E,R,V*6E
$GNGGA,022348.000,3109.965226,N,12117.375989,E,4,25,0.60,16.078,M,0,M,1,2525*54
$GNRMC,022349.000,A,3109.964371,N,12117.374021,E,6.817,242.94,030919,,E,R,V*63
$GNGGA,022349.000,3109.964371,N,12117.374021,E,4,25,0.60,16.014,M,0,M,1,2525*57
$GNRMC,022350.000,A,3109.963546,N,12117.372080,E,6.750,244.93,030919,,E,R,V*6E
$GNGGA,022350.000,3109.963546,N,12117.372080,E,4,25,0.60,16.089,M,0,M,1,2525*53
$GNRMC,022351.000,A,3109.962755,N,12117.370191,E,6.504,243.33,030919,,E,R,V*63
$GNGGA,022351.000,3109.962755,N,12117.370191,E,4,25,0.60,15.945,M,0,M,1,2525*5A
$GNRMC,022352.000,A,3109.961855,N,12117.368231,E,7.197,243.61,030919,,E,R,V*64
$GNGGA,022352.000,3109.961855,N,12117.368231,E,4,25,0.60,15.987,M,0,M,1,2525*5B
$GNRMC,022353.000,A,3109.960898,N,12117.366113,E,7.518,242.78,030919,,E,R,V*62
$GNGGA,022353.000,3109.960898,N,12117.366113,E,4,25,0.60,16.038,M,0,M,1,2525*59
$GNRMC,022354.000,A,3109.959935,N,12117.363869,E,7.938,244.32,030919,,E,R,V*6E
$GNGGA,022354.000,3109.959935,N,12117.363869,E,4,25,0.60,16.056,M,0,M,1,2525*5B
$GNRMC,022355.000,A,3109.958944,N,12117.361538,E,8.240,243.60,030919,,E,R,V*68
$GNGGA,022355.000,3109.958944,N,12117.361538,E,4,25,0.60,16.028,M,0,M,1,2525*5F
$GNRMC,022356.000,A,3109.957880,N,12117.359079,E,8.751,242.03,030919,,E,R,V*67
$GNGGA,022356.000,3109.957880,N,12117.359079,E,4,25,0.60,16.027,M,0,M,1,2525*5E
$GNRMC,022357.000,A,3109.956698,N,12117.356555,E,8.958,240.05,030919,,E,R,V*67
$GNGGA,022357.000,3109.956698,N,12117.356555,E,4,25,0.60,15.988,M,0,M,1,2525*52
$GNRMC,022358.000,A,3109.955463,N,12117.354074,E,8.797,240.57,030919,,E,R,V*63
$GNGGA,022358.000,3109.955463,N,12117.354074,E,4,25,0.60,15.991,M,0,M,1,2525*54
$GNRMC,022359.000,A,3109.954296,N,12117.351651,E,8.390,241.98,030919,,E,R,V*6A
$GNGGA,022359.000,3109.954296,N,12117.351651,E,4,25,0.60,16.052,M,0,M,2,2525*5A
$GNRMC,022400.000,A,3109.953317,N,12117.349412,E,7.216,243.63,030919,,E,R,V*64
$GNGGA,022400.000,3109.953317,N,12117.349412,E,4,26,0.58,16.004,M,0,M,3,2525*58
$GNRMC,022401.000,A,3109.952503,N,12117.347513,E,6.127,243.32,030919,,E,R,V*6D
$GNGGA,022401.000,3109.952503,N,12117.347513,E,4,26,0.58,16.020,M,0,M,4,2525*54
$GNRMC,022402.000,A,3109.951767,N,12117.345823,E,5.702,242.37,030919,,E,R,V*67
$GNGGA,022402.000,3109.951767,N,12117.345823,E,4,26,0.58,15.997,M,0,M,5,2525*5F
$GNRMC,022403.000,A,3109.951027,N,12117.344139,E,6.177,243.56,030919,,E,R,V*67
$GNGGA,022403.000,3109.951027,N,12117.344139,E,4,26,0.58,15.990,M,0,M,6,2525*5A
$GNRMC,022404.000,A,3109.950176,N,12117.342212,E,7.090,239.45,030919,,E,R,V*6E
$GNGGA,022404.000,3109.950176,N,12117.342212,E,4,26,0.58,15.984,M,0,M,1,2525*57
$GNRMC,022405.000,A,3109.949206,N,12117.340026,E,7.854,241.39,030919,,E,R,V*60
$GNGGA,022405.000,3109.949206,N,12117.340026,E,4,26,0.58,15.910,M,0,M,1,2525*50
$GNRMC,022406.000,A,3109.948116,N,12117.337725,E,8.307,240.98,030919,,E,R,V*6C
$GNGGA,022406.000,3109.948116,N,12117.337725,E,4,26,0.58,15.973,M,0,M,1,2525*51
$GNRMC,022407.000,A,3109.947025,N,12117.335290,E,8.521,242.23,030919,,E,R,V*6A
$GNGGA,022407.000,3109.947025,N,12117.335290,E,4,26,0.58,15.914,M,0,M,1,2525*56
$GNRMC,022408.000,A,3109.945931,N,12117.332821,E,8.493,242.86,030919,,E,R,V*6B
$GNGGA,022408.000,3109.945931,N,12117.332821,E,4,26,0.58,15.960,M,0,M,1,2525*53
$GNRMC,022409.000,A,3109.944857,N,12117.330282,E,8.835,244.20,030919,,E,R,V*61
$GNGGA,022409.000,3109.944857,N,12117.330282,E,4,26,0.58,15.929,M,0,M,2,2525*5D
$GNRMC,022410.000,A,3109.943723,N,12117.327675,E,9.271,242.25,030919,,E,R,V*60
$GNGGA,022410.000,3109.943723,N,12117.327675,E,4,26,0.58,15.973,M,0,M,3,2525*5A
$GNRMC,022411.000,A,3109.942488,N,12117.325039,E,9.323,241.27,030919,,E,R,V*69
$GNGGA,022411.000,3109.942488,N,12117.325039,E,4,26,0.58,15.978,M,0,M,1,2525*5D
$GNRMC,022412.000,A,3109.941245,N,12117.322374,E,9.305,241.14,030919,,E,R,V*67
$GNGGA,022412.000,3109.941245,N,12117.322374,E,4,26,0.58,15.952,M,0,M,1,2525*5F
$GNRMC,022413.000,A,3109.939971,N,12117.319656,E,9.680,243.36,030919,,E,R,V*62
$GNGGA,022413.000,3109.939971,N,12117.319656,E,4,26,0.58,15.962,M,0,M,1,2525*53
$GNRMC,022414.000,A,3109.938629,N,12117.316895,E,9.675,242.05,030919,,E,R,V*63
$GNGGA,022414.000,3109.938629,N,12117.316895,E,4,26,0.58,15.936,M,0,M,1,2525*58
$GNRMC,022415.000,A,3109.937417,N,12117.314070,E,9.738,244.14,030919,,E,R,V*6D
$GNGGA,022415.000,3109.937417,N,12117.314070,E,4,26,0.58,15.943,M,0,M,1,2525*5A
$GNRMC,022416.000,A,3109.936230,N,12117.311226,E,9.648,243.78,030919,,E,R,V*63
$GNGGA,022416.000,3109.936230,N,12117.311226,E,4,26,0.58,15.953,M,0,M,1,2525*5E
$GNRMC,022417.000,A,3109.935135,N,12117.308428,E,9.509,243.64,030919,,E,R,V*6C
$GNGGA,022417.000,3109.935135,N,12117.308428,E,4,26,0.58,16.031,M,0,M,1,2525*54
$GNRMC,022418.000,A,3109.933950,N,12117.305745,E,9.260,243.01,030919,,E,R,V*60
$GNGGA,022418.000,3109.933950,N,12117.305745,E,4,26,0.58,15.978,M,0,M,1,2525*54
$GNRMC,022419.000,A,3109.932775,N,12117.303193,E,8.916,241.75,030919,,E,R,V*68
$GNGGA,022419.000,3109.932775,N,12117.303193,E,4,26,0.58,16.001,M,0,M,1,2525*52
$GNRMC,022420.000,A,3109.931595,N,12117.300584,E,9.183,243.01,030919,,E,R,V*68
$GNGGA,022420.000,3109.931595,N,12117.300584,E,4,26,0.58,15.989,M,0,M,1,2525*5C
$GNRMC,022421.000,A,3109.930458,N,12117.297846,E,9.509,245.31,030919,,E,R,V*67
$GNGGA,022421.000,3109.930458,N,12117.297846,E,4,26,0.58,15.967,M,0,M,1,2525*50
$GNRMC,022422.000,A,3109.929268,N,12117.294980,E,9.983,243.60,030919,,E,R,V*6D
$GNGGA,022422.000,3109.929268,N,12117.294980,E,4,26,0.58,15.950,M,0,M,1,2525*52
$GNRMC,022423.000,A,3109.927943,N,12117.292057,E,10.304,242.13,030919,,E,R,V*5D
$GNGGA,022423.000,3109.927943,N,12117.292057,E,4,26,0.58,16.002,M,0,M,1,2525*57
$GNRMC,022424.000,A,3109.926560,N,12117.289159,E,10.235,240.57,030919,,E,R,V*52
$GNGGA,022424.000,3109.926560,N,12117.289159,E,4,26,0.58,15.998,M,0,M,1,2525*50
$GNRMC,022425.000,A,3109.925157,N,12117.286244,E,10.295,239.94,030919,,E,R,V*5B
$GNGGA,022425.000,3109.925157,N,12117.286244,E,4,26,0.58,15.996,M,0,M,1,2525*5C
$GNRMC,022426.000,A,3109.923739,N,12117.283348,E,10.191,241.20,030919,,E,R,V*5F
$GNGGA,022426.000,3109.923739,N,12117.283348,E,4,26,0.58,15.973,M,0,M,1,2525*54
$GNRMC,022427.000,A,3109.922489,N,12117.280393,E,10.052,244.24,030919,,E,R,V*5D
$GNGGA,022427.000,3109.922489,N,12117.280393,E,4,26,0.58,15.989,M,0,M,1,2525*5C
$GNRMC,022428.000,A,3109.921362,N,12117.277613,E,8.961,245.15,030919,,E,R,V*65
$GNGGA,022428.000,3109.921362,N,12117.277613,E,4,26,0.58,15.998,M,0,M,1,2525*57
$GNRMC,022429.000,A,3109.920325,N,12117.275172,E,7.977,243.28,030919,,E,R,V*64
$GNGGA,022429.000,3109.920325,N,12117.275172,E,4,26,0.58,16.005,M,0,M,1,2525*58
$GNRMC,022430.000,A,3109.919393,N,12117.273031,E,7.113,245.23,030919,,E,R,V*6C
$GNGGA,022430.000,3109.919393,N,12117.273031,E,4,26,0.58,16.003,M,0,M,1,2525*51
$GNRMC,022431.000,A,3109.918783,N,12117.270987,E,6.485,259.22,030919,,E,R,V*69
$GNGGA,022431.000,3109.918783,N,12117.270987,E,4,26,0.58,16.021,M,0,M,1,2525*53
$GNRMC,022432.000,A,3109.918786,N,12117.269025,E,6.032,280.75,030919,,E,R,V*68
$GNGGA,022432.000,3109.918786,N,12117.269025,E,4,26,0.58,16.014,M,0,M,1,2525*5A
$GNRMC,022433.000,A,3109.919342,N,12117.267279,E,5.863,300.07,030919,,E,R,V*62
$GNGGA,022433.000,3109.919342,N,12117.267279,E,4,26,0.58,16.056,M,0,M,1,2525*55
$GNRMC,022434.000,A,3109.920324,N,12117.265827,E,5.939,315.01,030919,,E,R,V*60
$GNGGA,022434.000,3109.920324,N,12117.265827,E,4,26,0.58,16.043,M,0,M,1,2525*5F
$GNRMC,022435.000,A,3109.921690,N,12117.264663,E,6.501,328.52,030919,,E,R,V*69
$GNGGA,022435.000,3109.921690,N,12117.264663,E,4,25,0.59,16.002,M,0,M,1,2525*5D
$GNRMC,022436.000,A,3109.923495,N,12117.263537,E,7.955,333.31,030919,,E,R,V*69
$GNGGA,022436.000,3109.923495,N,12117.263537,E,4,25,0.59,16.001,M,0,M,1,2525*5D
$GNRMC,022437.000,A,3109.925609,N,12117.262177,E,9.109,330.03,030919,,E,R,V*65
$GNGGA,022437.000,3109.925609,N,12117.262177,E,4,25,0.59,15.989,M,0,M,2,2525*55
$GNRMC,022438.000,A,3109.927957,N,12117.260674,E,9.847,331.68,030919,,E,R,V*65
$GNGGA,022438.000,3109.927957,N,12117.260674,E,4,25,0.59,16.031,M,0,M,3,2525*52
$GNRMC,022439.000,A,3109.930453,N,12117.259248,E,10.143,334.53,030919,,E,R,V*52
$GNGGA,022439.000,3109.930453,N,12117.259248,E,4,25,0.59,16.012,M,0,M,2,2525*5D
$GNRMC,022440.000,A,3109.933088,N,12117.257746,E,10.828,332.02,030919,,E,R,V*5E
$GNGGA,022440.000,3109.933088,N,12117.257746,E,4,25,0.59,16.094,M,0,M,1,2525*5A
$GNRMC,022441.000,A,3109.935827,N,12117.256062,E,11.107,331.24,030919,,E,R,V*56
$GNGGA,022441.000,3109.935827,N,12117.256062,E,4,25,0.59,15.994,M,0,M,1,2525*5A
$GNRMC,022442.000,A,3109.938560,N,12117.254442,E,10.797,333.41,030919,,E,R,V*5D
$GNGGA,022442.000,3109.938560,N,12117.254442,E,4,25,0.58,16.037,M,0,M,1,2525*5C
$GNRMC,022443.000,A,3109.941296,N,12117.252884,E,11.370,332.21,030919,,E,R,V*57
$GNGGA,022443.000,3109.941296,N,12117.252884,E,4,24,0.59,16.018,M,0,M,1,2525*50
$GNRMC,022444.000,A,3109.944128,N,12117.251151,E,11.573,331.93,030919,,E,R,V*5E
$GNGGA,022444.000,3109.944128,N,12117.251151,E,4,25,0.58,16.052,M,0,M,1,2525*58
$GNRMC,022445.000,A,3109.946938,N,12117.249490,E,11.069,332.79,030919,,E,R,V*5C
$GNGGA,022445.000,3109.946938,N,12117.249490,E,4,25,0.64,15.976,M,0,M,1,2525*50
$GNRMC,022446.000,A,3109.949631,N,12117.247821,E,10.937,331.39,030919,,E,R,V*5A
$GNGGA,022446.000,3109.949631,N,12117.247821,E,4,25,0.60,16.039,M,0,M,1,2525*57
$GNRMC,022447.000,A,3109.952257,N,12117.246117,E,10.649,331.44,030919,,E,R,V*54
$GNGGA,022447.000,3109.952257,N,12117.246117,E,4,25,0.60,16.031,M,0,M,1,2525*5D
$GNRMC,022448.000,A,3109.954687,N,12117.244501,E,9.557,329.97,030919,,E,R,V*66
$GNGGA,022448.000,3109.954687,N,12117.244501,E,4,25,0.60,16.037,M,0,M,1,2525*5A
$GNRMC,022449.000,A,3109.956950,N,12117.243098,E,9.211,334.74,030919,,E,R,V*66
$GNGGA,022449.000,3109.956950,N,12117.243098,E,4,25,0.60,16.014,M,0,M,1,2525*5F
$GNRMC,022450.000,A,3109.959229,N,12117.241793,E,9.150,333.24,030919,,E,R,V*6E
$GNGGA,022450.000,3109.959229,N,12117.241793,E,4,26,0.58,16.036,M,0,M,1,2525*5B
$GNRMC,022451.000,A,3109.961441,N,12117.240425,E,8.815,331.10,030919,,E,R,V*6F
$GNGGA,022451.000,3109.961441,N,12117.240425,E,4,26,0.58,16.016,M,0,M,1,2525*54
$GNRMC,022452.000,A,3109.963516,N,12117.239096,E,8.162,331.72,030919,,E,R,V*62
$GNGGA,022452.000,3109.963516,N,12117.239096,E,4,26,0.58,15.982,M,0,M,1,2525*53
$GNRMC,022453.000,A,3109.965496,N,12117.237989,E,7.641,335.94,030919,,E,R,V*60
$GNGGA,022453.000,3109.965496,N,12117.237989,E,4,26,0.58,16.021,M,0,M,1,2525*57
$GNRMC,022454.000,A,3109.967447,N,12117.237234,E,7.073,347.19,030919,,E,R,V*63
$GNGGA,022454.000,3109.967447,N,12117.237234,E,4,26,0.58,16.019,M,0,M,1,2525*58
$GNRMC,022455.000,A,3109.969360,N,12117.237083,E,6.859,5.66,030919,,E,R,V*6C
$GNGGA,022455.000,3109.969360,N,12117.237083,E,4,26,0.58,16.032,M,0,M,1,2525*52
$GNRMC,022456.000,A,3109.971127,N,12117.237635,E,6.592,23.99,030919,,E,R,V*52
$GNGGA,022456.000,3109.971127,N,12117.237635,E,4,26,0.58,16.065,M,0,M,1,2525*50
$GNRMC,022457.000,A,3109.972592,N,12117.238772,E,6.289,41.56,030919,,E,R,V*5D
$GNGGA,022457.000,3109.972592,N,12117.238772,E,4,26,0.58,16.074,M,0,M,1,2525*55
$GNRMC,022458.000,A,3109.973684,N,12117.240383,E,6.462,56.26,030919,,E,R,V*50
$GNGGA,022458.000,3109.973684,N,12117.240383,E,4,26,0.58,16.104,M,0,M,1,2525*5C
$GNRMC,022459.000,A,3109.974591,N,12117.242249,E,6.828,64.23,030919,,E,R,V*52
$GNGGA,022459.000,3109.974591,N,12117.242249,E,4,26,0.58,16.038,M,0,M,1,2525*56
$GNRMC,022500.000,A,3109.975407,N,12117.244275,E,7.089,64.28,030919,,E,R,V*50
$GNGGA,022500.000,3109.975407,N,12117.244275,E,4,26,0.58,15.988,M,0,M,1,2525*5C
$GNRMC,022501.000,A,3109.976297,N,12117.246399,E,7.500,63.14,030919,,E,R,V*50
$GNGGA,022501.000,3109.976297,N,12117.246399,E,4,26,0.58,16.000,M,0,M,1,2525*5A
$GNRMC,022502.000,A,3109.977225,N,12117.248674,E,8.132,65.14,030919,,E,R,V*5F
$GNGGA,022502.000,3109.977225,N,12117.248674,E,4,26,0.58,16.000,M,0,M,1,2525*59
$GNRMC,022503.000,A,3109.978261,N,12117.251103,E,8.763,62.33,030919,,E,R,V*5E
$GNGGA,022503.000,3109.978261,N,12117.251103,E,4,26,0.58,15.976,M,0,M,1,2525*53
$GNRMC,022504.000,A,3109.979344,N,12117.253535,E,8.481,62.38,030919,,E,R,V*59
$GNGGA,022504.000,3109.979344,N,12117.253535,E,4,26,0.58,15.997,M,0,M,1,2525*5F
$GNRMC,022505.000,A,3109.980425,N,12117.255832,E,7.910,61.17,030919,,E,R,V*56
$GNGGA,022505.000,3109.980425,N,12117.255832,E,4,26,0.58,15.993,M,0,M,2,2525*53
$GNRMC,022506.000,A,3109.981441,N,12117.258027,E,7.506,60.52,030919,,E,R,V*5C
$GNGGA,022506.000,3109.981441,N,12117.258027,E,4,26,0.58,16.000,M,0,M,3,2525*53
$GNRMC,022507.000,A,3109.982366,N,12117.260056,E,6.931,63.22,030919,,E,R,V*5C
$GNGGA,022507.000,3109.982366,N,12117.260056,E,4,26,0.58,16.032,M,0,M,1,2525*5D
$GNRMC,022508.000,A,3109.983224,N,12117.261987,E,6.749,62.05,030919,,E,R,V*54
$GNGGA,022508.000,3109.983224,N,12117.261987,E,4,26,0.58,16.022,M,0,M,1,2525*51
$GNRMC,022509.000,A,3109.984060,N,12117.263908,E,6.729,63.29,030919,,E,R,V*5C
$GNGGA,022509.000,3109.984060,N,12117.263908,E,4,26,0.58,16.017,M,0,M,1,2525*56
$GNRMC,022510.000,A,3109.984868,N,12117.265824,E,6.394,64.81,030919,,E,R,V*5A
$GNGGA,022510.000,3109.984868,N,12117.265824,E,4,26,0.58,16.012,M,0,M,1,2525*52
$GNRMC,022511.000,A,3109.985641,N,12117.267743,E,6.530,64.90,030919,,E,R,V*5B
$GNGGA,022511.000,3109.985641,N,12117.267743,E,4,26,0.58,15.998,M,0,M,1,2525*53
$GNRMC,022512.000,A,3109.986414,N,12117.269635,E,6.513,64.34,030919,,E,R,V*58
$GNGGA,022512.000,3109.986414,N,12117.269635,E,4,26,0.58,16.001,M,0,M,1,2525*55
$GNRMC,022513.000,A,3109.987285,N,12117.271650,E,7.485,62.58,030919,,E,R,V*5F
$GNGGA,022513.000,3109.987285,N,12117.271650,E,4,26,0.58,15.999,M,0,M,1,2525*5A
$GNRMC,022514.000,A,3109.988287,N,12117.273988,E,8.540,63.52,030919,,E,R,V*51
$GNGGA,022514.000,3109.988287,N,12117.273988,E,4,26,0.58,16.043,M,0,M,1,2525*55
$GNRMC,022515.000,A,3109.989330,N,12117.276528,E,8.838,64.95,030919,,E,R,V*51
$GNGGA,022515.000,3109.989330,N,12117.276528,E,4,26,0.58,16.060,M,0,M,1,2525*5A
$GNRMC,022516.000,A,3109.990413,N,12117.279170,E,9.172,64.98,030919,,E,R,V*51
$GNGGA,022516.000,3109.990413,N,12117.279170,E,4,26,0.58,16.065,M,0,M,1,2525*54
$GNRMC,022517.000,A,3109.991546,N,12117.281795,E,8.904,62.12,030919,,E,R,V*56
$GNGGA,022517.000,3109.991546,N,12117.281795,E,4,26,0.58,16.041,M,0,M,1,2525*59
$GNRMC,022518.000,A,3109.992712,N,12117.284214,E,8.263,59.86,030919,,E,R,V*5F
$GNGGA,022518.000,3109.992712,N,12117.284214,E,4,26,0.58,16.044,M,0,M,1,2525*5A
$GNRMC,022519.000,A,3109.993776,N,12117.286410,E,7.620,60.61,030919,,E,R,V*52
$GNGGA,022519.000,3109.993776,N,12117.286410,E,4,26,0.58,16.031,M,0,M,1,2525*5A
$GNRMC,022520.000,A,3109.994834,N,12117.288609,E,7.966,60.39,030919,,E,R,V*52
$GNGGA,022520.000,3109.994834,N,12117.288609,E,4,26,0.58,16.059,M,0,M,1,2525*54
$GNRMC,022521.000,A,3109.995947,N,12117.290933,E,8.249,60.99,030919,,E,R,V*5B
$GNGGA,022521.000,3109.995947,N,12117.290933,E,4,26,0.58,16.069,M,0,M,1,2525*5D
$GNRMC,022522.000,A,3109.997042,N,12117.293238,E,7.978,61.37,030919,,E,R,V*56
$GNGGA,022522.000,3109.997042,N,12117.293238,E,4,26,0.58,16.071,M,0,M,1,2525*5A
$GNRMC,022523.000,A,3109.998070,N,12117.295531,E,8.156,64.00,030919,,E,R,V*5B
$GNGGA,022523.000,3109.998070,N,12117.295531,E,4,27,0.56,16.050,M,0,M,1,2525*51
$GNRMC,022524.000,A,3109.999093,N,12117.297923,E,8.203,64.18,030919,,E,R,V*57
$GNGGA,022524.000,3109.999093,N,12117.297923,E,4,27,0.56,16.060,M,0,M,1,2525*54
$GNRMC,022525.000,A,3110.000039,N,12117.300195,E,7.566,63.19,030919,,E,R,V*50
$GNGGA,022525.000,3110.000039,N,12117.300195,E,4,27,0.56,16.063,M,0,M,1,2525*5D
$GNRMC,022526.000,A,3110.000965,N,12117.302409,E,7.720,63.79,030919,,E,R,V*57
$GNGGA,022526.000,3110.000965,N,12117.302409,E,4,26,0.59,16.060,M,0,M,1,2525*51
$GNRMC,022527.000,A,3110.001961,N,12117.304698,E,7.973,62.60,030919,,E,R,V*5E
$GNGGA,022527.000,3110.001961,N,12117.304698,E,4,26,0.59,16.062,M,0,M,1,2525*5B
$GNRMC,022528.000,A,3110.002996,N,12117.306963,E,7.884,61.65,030919,,E,R,V*5C
$GNGGA,022528.000,3110.002996,N,12117.306963,E,4,27,0.56,16.078,M,0,M,1,2525*53
$GNRMC,022529.000,A,3110.004065,N,12117.309230,E,8.123,59.95,030919,,E,R,V*53
$GNGGA,022529.000,3110.004065,N,12117.309230,E,4,27,0.56,16.050,M,0,M,1,2525*59
$GNRMC,022530.000,A,3110.005166,N,12117.311635,E,8.668,61.93,030919,,E,R,V*55
$GNGGA,022530.000,3110.005166,N,12117.311635,E,4,26,0.59,16.066,M,0,M,1,2525*51
$GNRMC,022531.000,A,3110.006275,N,12117.314156,E,8.906,62.20,030919,,E,R,V*5D
$GNGGA,022531.000,3110.006275,N,12117.314156,E,4,26,0.59,16.052,M,0,M,1,2525*52
$GNRMC,022532.000,A,3110.007375,N,12117.316729,E,8.854,63.90,030919,,E,R,V*5E
$GNGGA,022532.000,3110.007375,N,12117.316729,E,4,25,0.61,16.041,M,0,M,1,2525*57
$GNRMC,022533.000,A,3110.008485,N,12117.319316,E,8.957,63.26,030919,,E,R,V*50
$GNGGA,022533.000,3110.008485,N,12117.319316,E,4,26,0.59,16.040,M,0,M,2,2525*5C
$GNRMC,022534.000,A,3110.009624,N,12117.321924,E,9.057,63.58,030919,,E,R,V*5E
$GNGGA,022534.000,3110.009624,N,12117.321924,E,4,27,0.56,16.019,M,0,M,3,2525*50
$GNRMC,022535.000,A,3110.010737,N,12117.324386,E,8.191,61.44,030919,,E,R,V*56
$GNGGA,022535.000,3110.010737,N,12117.324386,E,4,27,0.56,16.023,M,0,M,1,2525*56
$GNRMC,022536.000,A,3110.011834,N,12117.326781,E,8.510,61.66,030919,,E,R,V*54
$GNGGA,022536.000,3110.011834,N,12117.326781,E,4,26,0.58,16.046,M,0,M,1,2525*55
$GNRMC,022537.000,A,3110.012963,N,12117.329179,E,8.251,61.60,030919,,E,R,V*5F
$GNGGA,022537.000,3110.012963,N,12117.329179,E,4,27,0.56,16.046,M,0,M,1,2525*55
$GNRMC,022538.000,A,3110.014006,N,12117.331349,E,7.255,60.36,030919,,E,R,V*5D
$GNGGA,022538.000,3110.014006,N,12117.331349,E,4,27,0.56,16.055,M,0,M,1,2525*5C
$GNRMC,022539.000,A,3110.014941,N,12117.333370,E,6.913,62.37,030919,,E,R,V*55
$GNGGA,022539.000,3110.014941,N,12117.333370,E,4,27,0.56,16.047,M,0,M,1,2525*5C
$GNRMC,022540.000,A,3110.015647,N,12117.335411,E,6.833,73.11,030919,,E,R,V*52
$GNGGA,022540.000,3110.015647,N,12117.335411,E,4,26,0.59,16.045,M,0,M,1,2525*50
$GNRMC,022541.000,A,3110.015899,N,12117.337620,E,6.731,91.67,030919,,E,R,V*5C
$GNGGA,022541.000,3110.015899,N,12117.337620,E,4,26,0.59,16.020,M,0,M,1,2525*5D
$GNRMC,022542.000,A,3110.015601,N,12117.339664,E,6.344,106.07,030919,,E,R,V*61
$GNGGA,022542.000,3110.015601,N,12117.339664,E,4,26,0.59,16.042,M,0,M,1,2525*5B
$GNRMC,022543.000,A,3110.014798,N,12117.341460,E,6.537,125.03,030919,,E,R,V*6E
$GNGGA,022543.000,3110.014798,N,12117.341460,E,4,26,0.59,16.044,M,0,M,1,2525*55
$GNRMC,022544.000,A,3110.013395,N,12117.343047,E,7.417,143.68,030919,,E,R,V*6B
$GNGGA,022544.000,3110.013395,N,12117.343047,E,4,26,0.59,16.081,M,0,M,1,2525*56
$GNRMC,022545.000,A,3110.011538,N,12117.344297,E,7.991,151.80,030919,,E,R,V*67
$GNGGA,022545.000,3110.011538,N,12117.344297,E,4,26,0.59,16.075,M,0,M,1,2525*57
$GNRMC,022546.000,A,3110.009532,N,12117.345644,E,8.520,144.30,030919,,E,R,V*6A
$GNGGA,022546.000,3110.009532,N,12117.345644,E,4,26,0.59,16.047,M,0,M,1,2525*5D
$GNRMC,022547.000,A,3110.007713,N,12117.347614,E,9.257,129.47,030919,,E,R,V*6E
$GNGGA,022547.000,3110.007713,N,12117.347614,E,4,26,0.59,16.084,M,0,M,1,2525*5B
$GNRMC,022548.000,A,3110.006312,N,12117.350420,E,10.433,111.95,030919,,E,R,V*5E
$GNGGA,022548.000,3110.006312,N,12117.350420,E,4,25,0.63,16.043,M,0,M,1,2525*52
$GNRMC,022549.000,A,3110.005312,N,12117.353825,E,11.466,105.92,030919,,E,R,V*55
$GNGGA,022549.000,3110.005312,N,12117.353825,E,4,26,0.59,16.001,M,0,M,1,2525*56
$GNRMC,022550.000,A,3110.004475,N,12117.357349,E,11.261,104.19,030919,,E,R,V*5C
$GNGGA,022550.000,3110.004475,N,12117.357349,E,4,26,0.59,16.032,M,0,M,1,2525*5C
$GNRMC,022551.000,A,3110.003619,N,12117.360661,E,10.283,109.30,030919,,E,R,V*52
$GNGGA,022551.000,3110.003619,N,12117.360661,E,4,26,0.59,15.992,M,0,M,1,2525*59
$GNRMC,022552.000,A,3110.002484,N,12117.363435,E,9.137,121.37,030919,,E,R,V*6F
$GNGGA,022552.000,3110.002484,N,12117.363435,E,4,27,0.56,15.997,M,0,M,1,2525*56
$GNRMC,022553.000,A,3110.000935,N,12117.365721,E,8.853,139.42,030919,,E,R,V*6A
$GNGGA,022553.000,3110.000935,N,12117.365721,E,4,27,0.56,16.105,M,0,M,1,2525*52
$GNRMC,022554.000,A,3109.999061,N,12117.367710,E,9.244,141.29,030919,,E,R,V*6B
$GNGGA,022554.000,3109.999061,N,12117.367710,E,4,27,0.56,16.033,M,0,M,1,2525*58
$GNRMC,022555.000,A,3109.996899,N,12117.369405,E,9.366,149.57,030919,,E,R,V*63
$GNGGA,022555.000,3109.996899,N,12117.369405,E,4,26,0.56,16.089,M,0,M,1,2525*50
$GNRMC,022556.000,A,3109.994602,N,12117.370879,E,9.799,152.32,030919,,E,R,V*6C
$GNGGA,022556.000,3109.994602,N,12117.370879,E,4,26,0.56,16.053,M,0,M,1,2525*55
$GNRMC,022557.000,A,3109.992161,N,12117.372352,E,10.081,150.65,030919,,E,R,V*5F
$GNGGA,022557.000,3109.992161,N,12117.372352,E,4,26,0.56,16.097,M,0,M,1,2525*58
$GNRMC,022558.000,A,3109.989690,N,12117.373824,E,9.966,150.46,030919,,E,R,V*61
$GNGGA,022558.000,3109.989690,N,12117.373824,E,4,26,0.56,16.061,M,0,M,1,2525*56
$GNRMC,022559.000,A,3109.987251,N,12117.375286,E,9.871,152.28,030919,,E,R,V*6E
$GNGGA,022559.000,3109.987251,N,12117.375286,E,4,26,0.56,16.030,M,0,M,1,2525*50
$GNRMC,022600.000,A,3109.984809,N,12117.376718,E,9.590,153.59,030919,,E,R,V*61
$GNGGA,022600.000,3109.984809,N,12117.376718,E,4,26,0.56,15.991,M,0,M,1,2525*5B
$GNRMC,022601.000,A,3109.982470,N,12117.378162,E,9.742,150.68,030919,,E,R,V*6D
$GNGGA,022601.000,3109.982470,N,12117.378162,E,4,26,0.56,16.019,M,0,M,1,2525*51
$GNRMC,022602.000,A,3109.980153,N,12117.379646,E,8.959,151.58,030919,,E,R,V*6F
$GNGGA,022602.000,3109.980153,N,12117.379646,E,4,27,0.56,16.010,M,0,M,2,2525*5F
$GNRMC,022603.000,A,3109.977984,N,12117.381045,E,8.760,151.25,030919,,E,R,V*68
$GNGGA,022603.000,3109.977984,N,12117.381045,E,4,27,0.56,16.005,M,0,M,3,2525*53
$GNRMC,022604.000,A,3109.975955,N,12117.382219,E,7.703,157.24,030919,,E,R,V*64
$GNGGA,022604.000,3109.975955,N,12117.382219,E,4,27,0.56,16.007,M,0,M,4,2525*57
$GNRMC,022605.000,A,3109.973966,N,12117.382944,E,7.271,169.54,030919,,E,R,V*6A
$GNGGA,022605.000,3109.973966,N,12117.382944,E,4,27,0.56,16.007,M,0,M,1,2525*56
$GNRMC,022606.000,A,3109.971975,N,12117.383105,E,7.069,181.33,030919,,E,R,V*69
$GNGGA,022606.000,3109.971975,N,12117.383105,E,4,27,0.56,16.008,M,0,M,1,2525*56
$GNRMC,022607.000,A,3109.970086,N,12117.382697,E,6.827,197.33,030919,,E,R,V*65
$GNGGA,022607.000,3109.970086,N,12117.382697,E,4,27,0.56,16.046,M,0,M,1,2525*54
$GNRMC,022608.000,A,3109.968370,N,12117.381777,E,6.662,209.26,030919,,E,R,V*6A
$GNGGA,022608.000,3109.968370,N,12117.381777,E,4,27,0.56,16.067,M,0,M,1,2525*57
$GNRMC,022609.000,A,3109.966964,N,12117.380423,E,6.474,227.81,030919,,E,R,V*6D
$GNGGA,022609.000,3109.966964,N,12117.380423,E,4,26,0.59,16.067,M,0,M,1,2525*5A
$GNRMC,022610.000,A,3109.965911,N,12117.378724,E,6.435,240.86,030919,,E,R,V*64
$GNGGA,022610.000,3109.965911,N,12117.378724,E,4,27,0.56,16.051,M,0,M,1,2525*5B
$GNRMC,022611.000,A,3109.965086,N,12117.376789,E,7.019,245.41,030919,,E,R,V*6E
$GNGGA,022611.000,3109.965086,N,12117.376789,E,4,27,0.56,16.060,M,0,M,1,2525*56
$GNRMC,022612.000,A,3109.964207,N,12117.374453,E,8.303,247.12,030919,,E,R,V*62
$GNGGA,022612.000,3109.964207,N,12117.374453,E,4,27,0.56,16.021,M,0,M,1,2525*5C
$GNRMC,022613.000,A,3109.963207,N,12117.372055,E,8.589,243.85,030919,,E,R,V*6E
$GNGGA,022613.000,3109.963207,N,12117.372055,E,4,27,0.56,16.124,M,0,M,1,2525*5A
$GNRMC,022614.000,A,3109.962180,N,12117.369709,E,7.989,241.69,030919,,E,R,V*63
$GNGGA,022614.000,3109.962180,N,12117.369709,E,4,26,0.57,15.994,M,0,M,1,2525*54
$GNRMC,022615.000,A,3109.961190,N,12117.367333,E,8.130,244.38,030919,,E,R,V*67
$GNGGA,022615.000,3109.961190,N,12117.367333,E,4,27,0.56,16.043,M,0,M,1,2525*54
$GNRMC,022616.000,A,3109.960195,N,12117.364922,E,8.284,245.68,030919,,E,R,V*61
$GNGGA,022616.000,3109.960195,N,12117.364922,E,4,27,0.56,16.080,M,0,M,1,2525*55
$GNRMC,022617.000,A,3109.959236,N,12117.362560,E,7.886,245.70,030919,,E,R,V*62
$GNGGA,022617.000,3109.959236,N,12117.362560,E,4,27,0.56,16.070,M,0,M,1,2525*57
$GNRMC,022618.000,A,3109.958206,N,12117.360289,E,8.188,239.51,030919,,E,R,V*6D
$GNGGA,022618.000,3109.958206,N,12117.360289,E,4,27,0.56,16.032,M,0,M,1,2525*5E
$GNRMC,022619.000,A,3109.956967,N,12117.358042,E,8.236,236.30,030919,,E,R,V*6E
$GNGGA,022619.000,3109.956967,N,12117.358042,E,4,26,0.57,16.022,M,0,M,1,2525*52
$GNRMC,022620.000,A,3109.955649,N,12117.355874,E,8.367,233.91,030919,,E,R,V*6F
$GNGGA,022620.000,3109.955649,N,12117.355874,E,4,27,0.56,15.983,M,0,M,1,2525*59
$GNRMC,022621.000,A,3109.954225,N,12117.353586,E,8.744,233.41,030919,,E,R,V*6F
$GNGGA,022621.000,3109.954225,N,12117.353586,E,4,27,0.56,16.006,M,0,M,1,2525*56
$GNRMC,022622.000,A,3109.952805,N,12117.351263,E,8.972,237.00,030919,,E,R,V*66
$GNGGA,022622.000,3109.952805,N,12117.351263,E,4,27,0.56,16.015,M,0,M,1,2525*57
$GNRMC,022623.000,A,3109.951529,N,12117.348712,E,9.423,242.40,030919,,E,R,V*62
$GNGGA,022623.000,3109.951529,N,12117.348712,E,4,26,0.57,16.036,M,0,M,1,2525*5C
$GNRMC,022624.000,A,3109.950354,N,12117.345943,E,9.409,244.98,030919,,E,R,V*64
$GNGGA,022624.000,3109.950354,N,12117.345943,E,4,27,0.56,16.020,M,0,M,1,2525*56
$GNRMC,022625.000,A,3109.949451,N,12117.343080,E,9.389,252.68,030919,,E,R,V*68
$GNGGA,022625.000,3109.949451,N,12117.343080,E,4,27,0.56,15.989,M,0,M,1,2525*54
$GNRMC,022626.000,A,3109.948693,N,12117.340005,E,10.218,254.12,030919,,E,R,V*52
$GNGGA,022626.000,3109.948693,N,12117.340005,E,4,27,0.56,15.954,M,0,M,1,2525*54
$GNRMC,022627.000,A,3109.947714,N,12117.336800,E,10.619,247.08,030919,,E,R,V*52
$GNGGA,022627.000,3109.947714,N,12117.336800,E,4,27,0.56,15.970,M,0,M,1,2525*5E
$GNRMC,022628.000,A,3109.946459,N,12117.333697,E,10.592,244.45,030919,,E,R,V*59
$GNGGA,022628.000,3109.946459,N,12117.333697,E,4,26,0.57,15.944,M,0,M,1,2525*58
$GNRMC,022629.000,A,3109.945145,N,12117.330701,E,10.365,244.74,030919,,E,R,V*52
$GNGGA,022629.000,3109.945145,N,12117.330701,E,4,27,0.56,15.975,M,0,M,1,2525*5D
$GNRMC,022630.000,A,3109.943919,N,12117.327819,E,9.541,242.99,030919,,E,R,V*60
$GNGGA,022630.000,3109.943919,N,12117.327819,E,4,27,0.56,15.995,M,0,M,2,2525*5F
$GNRMC,022631.000,A,3109.942747,N,12117.324991,E,9.882,244.14,030919,,E,R,V*66
$GNGGA,022631.000,3109.942747,N,12117.324991,E,4,27,0.56,15.972,M,0,M,3,2525*50
$GNRMC,022632.000,A,3109.941578,N,12117.322205,E,9.537,242.70,030919,,E,R,V*6F
$GNGGA,022632.000,3109.941578,N,12117.322205,E,4,27,0.56,15.973,M,0,M,1,2525*5D
$GNRMC,022633.000,A,3109.940314,N,12117.319281,E,10.406,243.84,030919,,E,R,V*56
$GNGGA,022633.000,3109.940314,N,12117.319281,E,4,27,0.56,15.914,M,0,M,1,2525*54
$GNRMC,022634.000,A,3109.939038,N,12117.316399,E,9.486,242.57,030919,,E,R,V*6A
$GNGGA,022634.000,3109.939038,N,12117.316399,E,4,26,0.57,16.015,M,0,M,1,2525*5C
$GNRMC,022635.000,A,3109.937864,N,12117.313739,E,9.425,241.78,030919,,E,R,V*68
$GNGGA,022635.000,3109.937864,N,12117.313739,E,4,25,0.58,16.032,M,0,M,1,2525*50
$GNRMC,022636.000,A,3109.936577,N,12117.311036,E,9.561,240.48,030919,,E,R,V*6C
$GNGGA,022636.000,3109.936577,N,12117.311036,E,4,26,0.57,15.995,M,0,M,1,2525*5C
$GNRMC,022637.000,A,3109.935209,N,12117.308180,E,10.364,241.36,030919,,E,R,V*57
$GNGGA,022637.000,3109.935209,N,12117.308180,E,4,26,0.57,16.074,M,0,M,1,2525*51
$GNRMC,022638.000,A,3109.933844,N,12117.305099,E,11.257,242.83,030919,,E,R,V*54
$GNGGA,022638.000,3109.933844,N,12117.305099,E,4,26,0.57,15.986,M,0,M,1,2525*58
$GNRMC,022639.000,A,3109.932313,N,12117.301569,E,12.977,243.35,030919,,E,R,V*55
$GNGGA,022639.000,3109.932313,N,12117.301569,E,4,26,0.57,16.004,M,0,M,1,2525*5F
$GNRMC,022640.000,A,3109.930654,N,12117.297841,E,13.075,241.46,030919,,E,R,V*5A
$GNGGA,022640.000,3109.930654,N,12117.297841,E,4,26,0.57,15.986,M,0,M,1,2525*5C
$GNRMC,022641.000,A,3109.928934,N,12117.294019,E,13.328,242.62,030919,,E,R,V*53
$GNGGA,022641.000,3109.928934,N,12117.294019,E,4,27,0.56,15.983,M,0,M,1,2525*5E
$GNRMC,022642.000,A,3109.927197,N,12117.290185,E,13.285,240.77,030919,,E,R,V*5E
$GNGGA,022642.000,3109.927197,N,12117.290185,E,4,27,0.56,15.996,M,0,M,1,2525*57
$GNRMC,022643.000,A,3109.925377,N,12117.286457,E,13.257,240.72,030919,,E,R,V*56
$GNGGA,022643.000,3109.925377,N,12117.286457,E,4,27,0.56,15.994,M,0,M,1,2525*57
$GNRMC,022644.000,A,3109.923646,N,12117.282747,E,12.685,242.45,030919,,E,R,V*5A
$GNGGA,022644.000,3109.923646,N,12117.282747,E,4,27,0.56,15.985,M,0,M,1,2525*57
$GNRMC,022645.000,A,3109.922117,N,12117.279275,E,11.519,242.38,030919,,E,R,V*56
$GNGGA,022645.000,3109.922117,N,12117.279275,E,4,27,0.56,15.997,M,0,M,1,2525*57
$GNRMC,022646.000,A,3109.920701,N,12117.276159,E,10.420,242.45,030919,,E,R,V*54
$GNGGA,022646.000,3109.920701,N,12117.276159,E,4,26,0.57,15.997,M,0,M,1,2525*55
$GNRMC,022647.000,A,3109.919512,N,12117.273362,E,9.085,245.94,030919,,E,R,V*68
$GNGGA,022647.000,3109.919512,N,12117.273362,E,4,25,0.58,16.020,M,0,M,1,2525*5B
$GNRMC,022648.000,A,3109.918865,N,12117.270786,E,7.859,261.25,030919,,E,R,V*6D
$GNGGA,022648.000,3109.918865,N,12117.270786,E,4,25,0.58,16.040,M,0,M,1,2525*53
$GNRMC,022649.000,A,3109.918894,N,12117.268438,E,7.000,278.95,030919,,E,R,V*6A
$GNGGA,022649.000,3109.918894,N,12117.268438,E,4,25,0.58,16.024,M,0,M,1,2525*51
$GNRMC,022650.000,A,3109.919633,N,12117.266471,E,6.683,306.26,030919,,E,R,V*6F
$GNGGA,022650.000,3109.919633,N,12117.266471,E,4,25,0.58,16.017,M,0,M,1,2525*58
$GNRMC,022651.000,A,3109.920929,N,12117.265028,E,6.626,320.36,030919,,E,R,V*61
$GNGGA,022651.000,3109.920929,N,12117.265028,E,4,26,0.57,15.754,M,0,M,1,2525*53
$GNRMC,022652.000,A,3109.922535,N,12117.263758,E,7.603,327.07,030919,,E,R,V*64
$GNGGA,022652.000,3109.922535,N,12117.263758,E,4,27,0.56,15.792,M,0,M,1,2525*5F
$GNRMC,022653.000,A,3109.924605,N,12117.262380,E,9.511,333.98,030919,,E,R,V*6E
$GNGGA,022653.000,3109.924605,N,12117.262380,E,4,27,0.56,15.768,M,0,M,1,2525*5D
$GNRMC,022654.000,A,3109.927302,N,12117.260872,E,11.455,335.02,030919,,E,R,V*51
$GNGGA,022654.000,3109.927302,N,12117.260872,E,4,26,0.56,15.988,M,0,M,1,2525*5E
$GNRMC,022655.000,A,3109.930200,N,12117.259267,E,11.644,333.78,030919,,E,R,V*58
$GNGGA,022655.000,3109.930200,N,12117.259267,E,4,26,0.56,16.023,M,0,M,1,2525*55
$GNRMC,022656.000,A,3109.933280,N,12117.257496,E,12.646,333.73,030919,,E,R,V*5C
$GNGGA,022656.000,3109.933280,N,12117.257496,E,4,26,0.56,15.984,M,0,M,1,2525*5C
$GNRMC,022657.000,A,3109.936411,N,12117.255552,E,13.106,332.11,030919,,E,R,V*5A
$GNGGA,022657.000,3109.936411,N,12117.255552,E,4,25,0.57,16.397,M,0,M,1,2525*54
$GNRMC,022658.000,A,3109.939707,N,12117.253543,E,13.291,333.30,030919,,E,R,V*57
$GNGGA,022658.000,3109.939707,N,12117.253543,E,4,25,0.57,16.019,M,0,M,2,2525*50
$GNRMC,022659.000,A,3109.943018,N,12117.251520,E,13.631,335.31,030919,,E,R,V*5C
$GNGGA,022659.000,3109.943018,N,12117.251520,E,4,26,0.56,16.016,M,0,M,3,2525*5E
$GNRMC,022700.000,A,3109.946454,N,12117.249537,E,13.655,332.27,030919,,E,R,V*55
$GNGGA,022700.000,3109.946454,N,12117.249537,E,4,26,0.56,16.012,M,0,M,1,2525*53
$GNRMC,022701.000,A,3109.949831,N,12117.247494,E,13.432,331.71,030919,,E,R,V*51
$GNGGA,022701.000,3109.949831,N,12117.247494,E,4,27,0.56,16.020,M,0,M,1,2525*54
$GNRMC,022702.000,A,3109.953046,N,12117.245507,E,12.850,332.97,030919,,E,R,V*5A
$GNGGA,022702.000,3109.953046,N,12117.245507,E,4,26,0.59,16.027,M,0,M,1,2525*54
$GNRMC,022703.000,A,3109.956127,N,12117.243599,E,12.284,331.79,030919,,E,R,V*59
$GNGGA,022703.000,3109.956127,N,12117.243599,E,4,27,0.56,16.059,M,0,M,1,2525*50
$GNRMC,022704.000,A,3109.958995,N,12117.241828,E,11.125,331.82,030919,,E,R,V*5B
$GNGGA,022704.000,3109.958995,N,12117.241828,E,4,27,0.56,16.010,M,0,M,1,2525*50
$GNRMC,022705.000,A,3109.961662,N,12117.240272,E,10.626,334.14,030919,,E,R,V*5C
$GNGGA,022705.000,3109.961662,N,12117.240272,E,4,27,0.56,15.998,M,0,M,1,2525*52
$GNRMC,022706.000,A,3109.964131,N,12117.238826,E,9.498,332.58,030919,,E,R,V*6E
$GNGGA,022706.000,3109.964131,N,12117.238826,E,4,27,0.56,15.984,M,0,M,1,2525*5C
$GNRMC,022707.000,A,3109.966429,N,12117.237504,E,8.882,334.84,030919,,E,R,V*62
$GNGGA,022707.000,3109.966429,N,12117.237504,E,4,27,0.56,16.026,M,0,M,1,2525*53
$GNRMC,022708.000,A,3109.968673,N,12117.236734,E,7.770,352.03,030919,,E,R,V*6C
$GNGGA,022708.000,3109.968673,N,12117.236734,E,4,27,0.56,15.971,M,0,M,1,2525*57
$GNRMC,022709.000,A,3109.970668,N,12117.236842,E,6.847,11.95,030919,,E,R,V*51
$GNGGA,022709.000,3109.970668,N,12117.236842,E,4,27,0.56,16.026,M,0,M,1,2525*53
$GNRMC,022710.000,A,3109.972319,N,12117.237694,E,6.396,33.73,030919,,E,R,V*53
$GNGGA,022710.000,3109.972319,N,12117.237694,E,4,27,0.56,16.111,M,0,M,1,2525*5B
$GNRMC,022711.000,A,3109.973530,N,12117.239169,E,6.511,55.70,030919,,E,R,V*5F
$GNGGA,022711.000,3109.973530,N,12117.239169,E,4,27,0.56,16.104,M,0,M,1,2525*59
$GNRMC,022712.000,A,3109.974492,N,12117.241140,E,7.490,62.73,030919,,E,R,V*58
$GNGGA,022712.000,3109.974492,N,12117.241140,E,4,27,0.56,16.145,M,0,M,1,2525*55
$GNRMC,022713.000,A,3109.975351,N,12117.243352,E,7.302,67.80,030919,,E,R,V*56
$GNGGA,022713.000,3109.975351,N,12117.243352,E,4,27,0.56,16.022,M,0,M,1,2525*5E
$GNRMC,022714.000,A,3109.976139,N,12117.245674,E,8.226,68.46,030919,,E,R,V*54
$GNGGA,022714.000,3109.976139,N,12117.245674,E,4,27,0.56,16.005,M,0,M,1,2525*54
$GNRMC,022715.000,A,3109.977092,N,12117.248258,E,8.713,65.72,030919,,E,R,V*5A
$GNGGA,022715.000,3109.977092,N,12117.248258,E,4,27,0.56,16.010,M,0,M,1,2525*57
$GNRMC,022716.000,A,3109.978186,N,12117.250963,E,9.663,63.69,030919,,E,R,V*53
$GNGGA,022716.000,3109.978186,N,12117.250963,E,4,27,0.56,15.968,M,0,M,1,2525*50
$GNRMC,022717.000,A,3109.979423,N,12117.253692,E,9.527,60.64,030919,,E,R,V*56
$GNGGA,022717.000,3109.979423,N,12117.253692,E,4,27,0.56,15.995,M,0,M,1,2525*5A
$GNRMC,022718.000,A,3109.980787,N,12117.256465,E,10.243,60.02,030919,,E,R,V*60
$GNGGA,022718.000,3109.980787,N,12117.256465,E,4,27,0.56,16.024,M,0,M,1,2525*51
$GNRMC,022719.000,A,3109.982158,N,12117.259242,E,9.452,61.42,030919,,E,R,V*50
$GNGGA,022719.000,3109.982158,N,12117.259242,E,4,26,0.57,16.049,M,0,M,1,2525*51
$GNRMC,022720.000,A,3109.983372,N,12117.261948,E,9.616,63.35,030919,,E,R,V*5B
$GNGGA,022720.000,3109.983372,N,12117.261948,E,4,27,0.56,16.056,M,0,M,1,2525*54
$GNRMC,022721.000,A,3109.984547,N,12117.264780,E,9.597,64.27,030919,,E,R,V*5C
$GNGGA,022721.000,3109.984547,N,12117.264780,E,4,27,0.56,16.033,M,0,M,1,2525*5E
$GNRMC,022722.000,A,3109.985736,N,12117.267522,E,9.149,62.36,030919,,E,R,V*52
$GNGGA,022722.000,3109.985736,N,12117.267522,E,4,27,0.56,15.995,M,0,M,1,2525*57
$GNRMC,022723.000,A,3109.986935,N,12117.270199,E,9.881,62.54,030919,,E,R,V*56
$GNGGA,022723.000,3109.986935,N,12117.270199,E,4,27,0.56,15.997,M,0,M,1,2525*58
$GNRMC,022724.000,A,3109.988249,N,12117.273070,E,10.066,61.52,030919,,E,R,V*66
$GNGGA,022724.000,3109.988249,N,12117.273070,E,4,27,0.56,16.030,M,0,M,1,2525*53
$GNRMC,022725.000,A,3109.989614,N,12117.276154,E,11.126,63.32,030919,,E,R,V*68
$GNGGA,022725.000,3109.989614,N,12117.276154,E,4,27,0.56,16.059,M,0,M,2,2525*51
$GNRMC,022726.000,A,3109.991033,N,12117.279436,E,11.709,63.24,030919,,E,R,V*63
$GNGGA,022726.000,3109.991033,N,12117.279436,E,4,27,0.56,16.062,M,0,M,1,2525*5D
$GNRMC,022727.000,A,3109.992571,N,12117.282919,E,12.199,62.43,030919,,E,R,V*6A
$GNGGA,022727.000,3109.992571,N,12117.282919,E,4,27,0.56,16.041,M,0,M,1,2525*59
$GNRMC,022728.000,A,3109.994078,N,12117.286255,E,11.502,62.21,030919,,E,R,V*69
$GNGGA,022728.000,3109.994078,N,12117.286255,E,4,27,0.56,16.030,M,0,M,1,2525*5D
$GNRMC,022729.000,A,3109.995524,N,12117.289619,E,11.674,63.60,030919,,E,R,V*60
$GNGGA,022729.000,3109.995524,N,12117.289619,E,4,27,0.56,16.069,M,0,M,1,2525*5E
$GNRMC,022730.000,A,3109.997011,N,12117.292916,E,11.202,62.43,030919,,E,R,V*66
$GNGGA,022730.000,3109.997011,N,12117.292916,E,4,27,0.56,16.066,M,0,M,1,2525*52
$GNRMC,022731.000,A,3109.998434,N,12117.296172,E,11.402,62.74,030919,,E,R,V*67
$GNGGA,022731.000,3109.998434,N,12117.296172,E,4,27,0.56,16.056,M,0,M,1,2525*52
$GNRMC,022732.000,A,3109.999836,N,12117.299395,E,10.664,63.89,030919,,E,R,V*6F
$GNGGA,022732.000,3109.999836,N,12117.299395,E,4,27,0.56,16.067,M,0,M,1,2525*58
$GNRMC,022733.000,A,3110.001154,N,12117.302438,E,10.715,63.10,030919,,E,R,V*67
$GNGGA,022733.000,3110.001154,N,12117.302438,E,4,27,0.56,16.064,M,0,M,1,2525*54
$GNRMC,022734.000,A,3110.002586,N,12117.305695,E,11.818,62.91,030919,,E,R,V*61
$GNGGA,022734.000,3110.002586,N,12117.305695,E,4,27,0.56,16.064,M,0,M,1,2525*59
$GNRMC,022735.000,A,3110.004164,N,12117.309261,E,12.546,61.61,030919,,E,R,V*64
$GNGGA,022735.000,3110.004164,N,12117.309261,E,4,26,0.59,16.087,M,0,M,1,2525*56
$GNRMC,022736.000,A,3110.005697,N,12117.312712,E,11.586,62.55,030919,,E,R,V*6D
$GNGGA,022736.000,3110.005697,N,12117.312712,E,4,26,0.59,16.076,M,0,M,1,2525*5A
$GNRMC,022737.000,A,3110.007177,N,12117.315994,E,11.034,62.07,030919,,E,R,V*6B
$GNGGA,022737.000,3110.007177,N,12117.315994,E,4,27,0.56,16.058,M,0,M,1,2525*55
$GNRMC,022738.000,A,3110.008549,N,12117.319017,E,10.364,61.66,030919,,E,R,V*6F
$GNGGA,022738.000,3110.008549,N,12117.319017,E,4,27,0.56,16.043,M,0,M,1,2525*58
$GNRMC,022739.000,A,3110.009809,N,12117.321951,E,9.927,64.68,030919,,E,R,V*58
$GNGGA,022739.000,3110.009809,N,12117.321951,E,4,27,0.56,16.038,M,0,M,1,2525*5D
$GNRMC,022740.000,A,3110.011039,N,12117.324791,E,9.965,63.57,030919,,E,R,V*5E
$GNGGA,022740.000,3110.011039,N,12117.324791,E,4,27,0.56,16.031,M,0,M,1,2525*5F
$GNRMC,022741.000,A,3110.012268,N,12117.327489,E,8.882,60.62,030919,,E,R,V*5F
$GNGGA,022741.000,3110.012268,N,12117.327489,E,4,27,0.56,16.055,M,0,M,1,2525*50
$GNRMC,022742.000,A,3110.013404,N,12117.329937,E,8.481,61.23,030919,,E,R,V*5C
$GNGGA,022742.000,3110.013404,N,12117.329937,E,4,27,0.56,16.061,M,0,M,1,2525*5F
$GNRMC,022743.000,A,3110.014447,N,12117.332201,E,7.739,61.68,030919,,E,R,V*59
$GNGGA,022743.000,3110.014447,N,12117.332201,E,4,27,0.56,16.051,M,0,M,1,2525*59
$GNRMC,022744.000,A,3110.015230,N,12117.333916,E,3.561,62.29,030919,,E,R,V*58
$GNGGA,022744.000,3110.015230,N,12117.333916,E,4,27,0.56,16.041,M,0,M,1,2525*54
$GNRMC,022745.000,A,3110.015340,N,12117.334158,E,0.122,62.36,030919,,E,R,V*54
$GNGGA,022745.000,3110.015340,N,12117.334158,E,4,27,0.56,16.060,M,0,M,1,2525*55
$GNRMC,022746.000,A,3110.015343,N,12117.334163,E,0.062,66.09,030919,,E,R,V*51
$GNGGA,022746.000,3110.015343,N,12117.334163,E,4,27,0.56,16.058,M,0,M,1,2525*56
$GNRMC,022747.000,A,3110.015384,N,12117.334252,E,0.650,62.24,030919,,E,R,V*56
$GNGGA,022747.000,3110.015384,N,12117.334252,E,4,27,0.56,16.044,M,0,M,1,2525*50
$GNRMC,022748.000,A,3110.015547,N,12117.334637,E,1.955,64.98,030919,,E,R,V*5D
$GNGGA,022748.000,3110.015547,N,12117.334637,E,4,27,0.56,16.039,M,0,M,1,2525*5B
$GNRMC,022749.000,A,3110.015808,N,12117.335453,E,3.173,73.68,030919,,E,R,V*5C
$GNGGA,022749.000,3110.015808,N,12117.335453,E,4,27,0.56,16.036,M,0,M,1,2525*52
$GNRMC,022750.000,A,3110.016069,N,12117.336803,E,4.721,81.26,030919,,E,R,V*53
$GNGGA,022750.000,3110.016069,N,12117.336803,E,4,28,0.54,16.029,M,0,M,1,2525*5F
$GNRMC,022751.000,A,3110.016004,N,12117.338496,E,5.418,102.28,030919,,E,R,V*6B
$GNGGA,022751.000,3110.016004,N,12117.338496,E,4,28,0.54,16.011,M,0,M,1,2525*50
$GNRMC,022752.000,A,3110.015356,N,12117.340102,E,5.575,127.00,030919,,E,R,V*6F
$GNGGA,022752.000,3110.015356,N,12117.340102,E,4,28,0.54,16.044,M,0,M,1,2525*53
$GNRMC,022753.000,A,3110.014278,N,12117.341450,E,5.790,137.63,030919,,E,R,V*6C
$GNGGA,022753.000,3110.014278,N,12117.341450,E,4,28,0.54,16.064,M,0,M,2,2525*5C
$GNRMC,022754.000,A,3110.013006,N,12117.342623,E,6.071,141.10,030919,,E,R,V*6C
$GNGGA,022754.000,3110.013006,N,12117.342623,E,4,28,0.54,16.094,M,0,M,1,2525*5E
$GNRMC,022755.000,A,3110.011633,N,12117.343843,E,6.575,143.03,030919,,E,R,V*67
$GNGGA,022755.000,3110.011633,N,12117.343843,E,4,28,0.54,16.074,M,0,M,1,2525*5A
$GNRMC,022756.000,A,3110.010100,N,12117.345239,E,7.255,141.64,030919,,E,R,V*64
$GNGGA,022756.000,3110.010100,N,12117.345239,E,4,28,0.54,16.041,M,0,M,1,2525*58
$GNRMC,022757.000,A,3110.008558,N,12117.346752,E,7.307,136.78,030919,,E,R,V*65
$GNGGA,022757.000,3110.008558,N,12117.346752,E,4,28,0.54,16.028,M,0,M,1,2525*5D
$GNRMC,022758.000,A,3110.007306,N,12117.348576,E,7.259,122.83,030919,,E,R,V*69
$GNGGA,022758.000,3110.007306,N,12117.348576,E,4,28,0.54,15.990,M,0,M,1,2525*53
$GNRMC,022759.000,A,3110.006308,N,12117.350668,E,7.498,117.01,030919,,E,R,V*65
$GNGGA,022759.000,3110.006308,N,12117.350668,E,4,28,0.54,16.046,M,0,M,1,2525*59
$GNRMC,022800.000,A,3110.005433,N,12117.352930,E,7.613,113.70,030919,,E,R,V*69
$GNGGA,022800.000,3110.005433,N,12117.352930,E,4,28,0.54,16.035,M,0,M,1,2525*52
$GNRMC,022801.000,A,3110.004696,N,12117.355243,E,7.564,108.43,030919,,E,R,V*65
$GNGGA,022801.000,3110.004696,N,12117.355243,E,4,28,0.54,16.065,M,0,M,1,2525*52
$GNRMC,022802.000,A,3110.004079,N,12117.357579,E,7.505,105.36,030919,,E,R,V*65
$GNGGA,022802.000,3110.004079,N,12117.357579,E,4,28,0.54,15.945,M,0,M,1,2525*52
$GNRMC,022803.000,A,3110.003504,N,12117.359855,E,7.162,104.77,030919,,E,R,V*60
$GNGGA,022803.000,3110.003504,N,12117.359855,E,4,28,0.54,15.990,M,0,M,1,2525*5E
$GNRMC,022804.000,A,3110.002910,N,12117.362000,E,6.674,112.46,030919,,E,R,V*6B
$GNGGA,022804.000,3110.002910,N,12117.362000,E,4,28,0.54,15.983,M,0,M,1,2525*53
$GNRMC,022805.000,A,3110.002101,N,12117.363914,E,6.442,120.48,030919,,E,R,V*67
$GNGGA,022805.000,3110.002101,N,12117.363914,E,4,28,0.54,16.048,M,0,M,1,2525*5A
$GNRMC,022806.000,A,3110.001130,N,12117.365700,E,6.313,129.48,030919,,E,R,V*62
$GNGGA,022806.000,3110.001130,N,12117.365700,E,4,28,0.54,16.027,M,0,M,1,2525*5C
$GNRMC,022807.000,A,3109.999985,N,12117.367268,E,6.458,140.37,030919,,E,R,V*63
$GNGGA,022807.000,3109.999985,N,12117.367268,E,4,28,0.54,16.080,M,0,M,1,2525*5F
$GNRMC,022808.000,A,3109.998643,N,12117.368531,E,6.165,144.27,030919,,E,R,V*62
