$GNRMC,022134.00,A,3110.00593,N,12117.31345,E,0.001,,030919,,,R,V*0A
$GNGGA,022134.00,3110.00593,N,12117.31345,E,4,12,0.52,6.6,M,9.5,M,1.0,2525*5E
$GNRMC,022135.00,A,3110.00593,N,12117.31345,E,0.007,,030919,,,R,V*0D
$GNGGA,022135.00,3110.00593,N,12117.31345,E,4,12,0.52,6.6,M,9.5,M,1.0,2525*5F
$GNRMC,022136.00,A,3110.00593,N,12117.31345,E,0.011,,030919,,,R,V*09
$GNGGA,022136.00,3110.00593,N,12117.31345,E,4,12,0.52,6.6,M,9.5,M,1.0,2525*5C
$GNRMC,022137.00,A,3110.00593,N,12117.31345,E,0.012,,030919,,,R,V*0B
$GNGGA,022137.00,3110.00593,N,12117.31345,E,4,12,0.52,6.6,M,9.5,M,1.0,2525*5D
$GNRMC,022138.00,A,3110.00593,N,12117.31345,E,0.004,,030919,,,R,V*03
$GNGGA,022138.00,3110.00593,N,12117.31345,E,4,12,0.52,6.6,M,9.5,M,1.0,2525*52
$GNRMC,022139.00,A,3110.00593,N,12117.31344,E,0.008,,030919,,,R,V*0F
$GNGGA,022139.00,3110.00593,N,12117.31344,E,4,12,0.52,6.6,M,9.5,M,1.0,2525*52
$GNRMC,022140.00,A,3110.00593,N,12117.31344,E,0.009,,030919,,,R,V*00
$GNGGA,022140.00,3110.00593,N,12117.31344,E,4,12,0.50,6.6,M,9.5,M,1.0,2525*5E
$GNRMC,022141.00,A,3110.00593,N,12117.31345,E,0.006,,030919,,,R,V*0F
$GNGGA,022141.00,3110.00593,N,12117.31345,E,4,12,0.50,6.6,M,9.5,M,1.0,2525*5E
$GNRMC,022142.00,A,3110.00593,N,12117.31345,E,0.012,,030919,,,R,V*09
$GNGGA,022142.00,3110.00593,N,12117.31345,E,4,12,0.50,6.6,M,9.5,M,1.0,2525*5D
$GNRMC,022143.00,A,3110.00593,N,12117.31345,E,0.009,,030919,,,R,V*02
$GNGGA,022143.00,3110.00593,N,12117.31345,E,4,12,0.50,6.6,M,9.5,M,1.0,2525*5C
$GNRMC,022144.00,A,3110.00593,N,12117.31344,E,0.001,,030919,,,R,V*0C
$GNGGA,022144.00,3110.00593,N,12117.31344,E,4,12,0.50,6.6,M,9.5,M,1.0,2525*5A
$GNRMC,022145.00,A,3110.00593,N,12117.31344,E,0.004,,030919,,,R,V*08
$GNGGA,022145.00,3110.00593,N,12117.31344,E,4,12,0.50,6.6,M,9.5,M,1.0,2525*5B
$GNRMC,022146.00,A,3110.00593,N,12117.31344,E,0.007,,030919,,,R,V*08
$GNGGA,022146.00,3110.00593,N,12117.31344,E,4,12,0.50,6.6,M,9.5,M,2.0,2525*5B
$GNRMC,022147.00,A,3110.00593,N,12117.31345,E,0.008,,030919,,,R,V*07
$GNGGA,022147.00,3110.00593,N,12117.31345,E,4,12,0.50,6.6,M,9.5,M,3.0,2525*5A
$GNRMC,022148.00,A,3110.00593,N,12117.31345,E,0.004,,030919,,,R,V*04
$GNGGA,022148.00,3110.00593,N,12117.31345,E,4,12,0.50,6.6,M,9.5,M,1.0,2525*57
$GNRMC,022149.00,A,3110.00593,N,12117.31344,E,0.008,,030919,,,R,V*08
$GNGGA,022149.00,3110.00593,N,12117.31344,E,4,12,0.50,6.6,M,9.5,M,1.0,2525*57
$GNRMC,022150.00,A,3110.00593,N,12117.31344,E,0.006,,030919,,,R,V*0E
$GNGGA,022150.00,3110.00593,N,12117.31344,E,4,12,0.50,6.6,M,9.5,M,1.0,2525*5F
$GNRMC,022151.00,A,3110.00593,N,12117.31344,E,0.002,,030919,,,R,V*0B
$GNGGA,022151.00,3110.00593,N,12117.31344,E,4,12,0.50,6.6,M,9.5,M,1.0,2525*5E
$GNRMC,022152.00,A,3110.00593,N,12117.31344,E,0.005,,030919,,,R,V*0F
$GNGGA,022152.00,3110.00593,N,12117.31344,E,4,12,0.50,6.6,M,9.5,M,1.0,2525*5D
$GNRMC,022153.00,A,3110.00593,N,12117.31345,E,0.008,,030919,,,R,V*02
$GNGGA,022153.00,3110.00593,N,12117.31345,E,4,12,0.50,6.6,M,9.5,M,2.0,2525*5E
$GNRMC,022154.00,A,3110.00593,N,12117.31345,E,0.010,,030919,,,R,V*0C
$GNGGA,022154.00,3110.00593,N,12117.31345,E,4,12,0.50,6.6,M,9.5,M,1.0,2525*5A
$GNRMC,022155.00,A,3110.00593,N,12117.31344,E,0.010,,030919,,,R,V*0C
$GNGGA,022155.00,3110.00593,N,12117.31344,E,4,12,0.50,6.6,M,9.5,M,1.0,2525*5A
$GNRMC,022156.00,A,3110.00593,N,12117.31344,E,0.006,,030919,,,R,V*08
$GNGGA,022156.00,3110.00593,N,12117.31344,E,4,12,0.50,6.6,M,9.5,M,1.0,2525*59
$GNRMC,022157.00,A,3110.00593,N,12117.31344,E,0.000,,030919,,,R,V*0F
$GNGGA,022157.00,3110.00593,N,12117.31344,E,4,12,0.50,6.6,M,9.5,M,1.0,2525*58
$GNRMC,022158.00,A,3110.00593,N,12117.31345,E,0.006,,030919,,,R,V*07
$GNGGA,022158.00,3110.00593,N,12117.31345,E,4,12,0.50,6.6,M,9.5,M,1.0,2525*56
$GNRMC,022159.00,A,3110.00593,N,12117.31344,E,0.010,,030919,,,R,V*00
$GNGGA,022159.00,3110.00593,N,12117.31344,E,4,12,0.50,6.6,M,9.5,M,1.0,2525*56
$GNRMC,022200.00,A,3110.00593,N,12117.31344,E,0.005,,030919,,,R,V*0B
$GNGGA,022200.00,3110.00593,N,12117.31344,E,4,12,0.50,6.6,M,9.5,M,1.0,2525*59
$GNRMC,022201.00,A,3110.00593,N,12117.31344,E,0.006,,030919,,,R,V*09
$GNGGA,022201.00,3110.00593,N,12117.31344,E,4,12,0.50,6.6,M,9.5,M,1.0,2525*58
$GNRMC,022202.00,A,3110.00593,N,12117.31344,E,0.004,,030919,,,R,V*08
$GNGGA,022202.00,3110.00593,N,12117.31344,E,4,12,0.50,6.6,M,9.5,M,1.0,2525*5B
$GNRMC,022203.00,A,3110.00593,N,12117.31344,E,0.001,,030919,,,R,V*0C
$GNGGA,022203.00,3110.00593,N,12117.31344,E,4,12,0.50,6.6,M,9.5,M,1.0,2525*5A
$GNRMC,022204.00,A,3110.00593,N,12117.31344,E,0.005,,030919,,,R,V*0F
$GNGGA,022204.00,3110.00593,N,12117.31344,E,4,12,0.50,6.6,M,9.5,M,1.0,2525*5D
$GNRMC,022205.00,A,3110.00593,N,12117.31344,E,0.010,,030919,,,R,V*0A
$GNGGA,022205.00,3110.00593,N,12117.31344,E,4,12,0.50,6.6,M,9.5,M,1.0,2525*5C
$GNRMC,022206.00,A,3110.00593,N,12117.31344,E,0.010,,030919,,,R,V*09
$GNGGA,022206.00,3110.00593,N,12117.31344,E,4,12,0.50,6.6,M,9.5,M,1.0,2525*5F
$GNRMC,022207.00,A,3110.00593,N,12117.31344,E,0.010,,030919,,,R,V*08
$GNGGA,022207.00,3110.00593,N,12117.31344,E,4,12,0.50,6.6,M,9.5,M,1.0,2525*5E
$GNRMC,022208.00,A,3110.00593,N,12117.31344,E,0.008,,030919,,,R,V*0E
$GNGGA,022208.00,3110.00593,N,12117.31344,E,4,12,0.50,6.6,M,9.5,M,1.0,2525*51
$GNRMC,022209.00,A,3110.00593,N,12117.31344,E,0.007,,030919,,,R,V*00
$GNGGA,022209.00,3110.00593,N,12117.31344,E,4,12,0.50,6.6,M,9.5,M,1.0,2525*50
$GNRMC,022210.00,A,3110.00593,N,12117.31344,E,0.002,,030919,,,R,V*0D
$GNGGA,022210.00,3110.00593,N,12117.31344,E,4,12,0.50,6.6,M,9.5,M,1.0,2525*58
$GNRMC,022211.00,A,3110.00593,N,12117.31344,E,0.015,,030919,,,R,V*0A
$GNGGA,022211.00,3110.00593,N,12117.31344,E,4,12,0.50,6.6,M,9.5,M,1.0,2525*59
$GNRMC,022212.00,A,3110.00593,N,12117.31344,E,0.005,,030919,,,R,V*08
$GNGGA,022212.00,3110.00593,N,12117.31344,E,4,12,0.50,6.6,M,9.5,M,1.0,2525*5A
$GNRMC,022213.00,A,3110.00593,N,12117.31344,E,0.007,,030919,,,R,V*0B
$GNGGA,022213.00,3110.00593,N,12117.31344,E,4,12,0.50,6.6,M,9.5,M,1.0,2525*5B
$GNRMC,022214.00,A,3110.00593,N,12117.31344,E,0.014,,030919,,,R,V*0E
$GNGGA,022214.00,3110.00593,N,12117.31344,E,4,12,0.50,6.6,M,9.5,M,2.0,2525*5F
$GNRMC,022215.00,A,3110.00593,N,12117.31344,E,0.014,,030919,,,R,V*0F
$GNGGA,022215.00,3110.00593,N,12117.31344,E,4,12,0.50,6.6,M,9.5,M,3.0,2525*5F
$GNRMC,022216.00,A,3110.00593,N,12117.31344,E,0.006,,030919,,,R,V*0F
$GNGGA,022216.00,3110.00593,N,12117.31344,E,4,12,0.50,6.5,M,9.5,M,4.0,2525*58
$GNRMC,022217.00,A,3110.00593,N,12117.31344,E,0.011,,030919,,,R,V*08
$GNGGA,022217.00,3110.00593,N,12117.31344,E,4,12,0.50,6.5,M,9.5,M,1.0,2525*5C
$GNRMC,022218.00,A,3110.00593,N,12117.31344,E,0.010,,030919,,,R,V*06
$GNGGA,022218.00,3110.00593,N,12117.31344,E,4,12,0.50,6.5,M,9.5,M,1.0,2525*53
$GNRMC,022219.00,A,3110.00593,N,12117.31345,E,0.004,,030919,,,R,V*03
$GNGGA,022219.00,3110.00593,N,12117.31345,E,4,12,0.50,6.5,M,9.5,M,1.0,2525*53
$GNRMC,022220.00,A,3110.00593,N,12117.31345,E,0.003,,030919,,,R,V*0E
$GNGGA,022220.00,3110.00593,N,12117.31345,E,4,12,0.50,6.5,M,9.5,M,1.0,2525*59
$GNRMC,022221.00,A,3110.00593,N,12117.31344,E,0.005,,030919,,,R,V*08
$GNGGA,022221.00,3110.00593,N,12117.31344,E,4,12,0.50,6.5,M,9.5,M,1.0,2525*59
$GNRMC,022222.00,A,3110.00593,N,12117.31344,E,0.006,,030919,,,R,V*08
$GNGGA,022222.00,3110.00593,N,12117.31344,E,4,12,0.50,6.5,M,9.5,M,1.0,2525*5A
$GNRMC,022223.00,A,3110.00593,N,12117.31344,E,0.009,,030919,,,R,V*06
$GNGGA,022223.00,3110.00593,N,12117.31344,E,4,12,0.50,6.5,M,9.5,M,1.0,2525*5B
$GNRMC,022224.00,A,3110.00593,N,12117.31344,E,0.009,,030919,,,R,V*01
$GNGGA,022224.00,3110.00593,N,12117.31344,E,4,12,0.50,6.5,M,9.5,M,1.0,2525*5C
$GNRMC,022225.00,A,3110.00593,N,12117.31344,E,0.006,,030919,,,R,V*0F
$GNGGA,022225.00,3110.00593,N,12117.31344,E,4,12,0.50,6.5,M,9.5,M,1.0,2525*5D
$GNRMC,022226.00,A,3110.00593,N,12117.31344,E,0.003,,030919,,,R,V*09
$GNGGA,022226.00,3110.00593,N,12117.31344,E,4,12,0.50,6.5,M,9.5,M,1.0,2525*5E
$GNRMC,022227.00,A,3110.00593,N,12117.31344,E,0.007,,030919,,,R,V*0C
$GNGGA,022227.00,3110.00593,N,12117.31344,E,4,12,0.50,6.5,M,9.5,M,1.0,2525*5F
$GNRMC,022228.00,A,3110.00593,N,12117.31345,E,0.005,,030919,,,R,V*00
$GNGGA,022228.00,3110.00593,N,12117.31345,E,4,12,0.50,6.5,M,9.5,M,1.0,2525*51
$GNRMC,022229.00,A,3110.00593,N,12117.31344,E,0.004,,030919,,,R,V*01
$GNGGA,022229.00,3110.00593,N,12117.31344,E,4,12,0.50,6.5,M,9.5,M,1.0,2525*51
$GNRMC,022230.00,A,3110.00593,N,12117.31344,E,0.009,,030919,,,R,V*04
$GNGGA,022230.00,3110.00593,N,12117.31344,E,4,12,0.50,6.5,M,9.5,M,1.0,2525*59
$GNRMC,022231.00,A,3110.00593,N,12117.31344,E,0.011,,030919,,,R,V*0C
$GNGGA,022231.00,3110.00593,N,12117.31344,E,4,12,0.50,6.5,M,9.5,M,1.0,2525*58
$GNRMC,022232.00,A,3110.00593,N,12117.31344,E,0.007,,030919,,,R,V*08
$GNGGA,022232.00,3110.00593,N,12117.31344,E,4,12,0.50,6.5,M,9.5,M,1.0,2525*5B
$GNRMC,022233.00,A,3110.00593,N,12117.31344,E,0.010,,030919,,,R,V*0F
$GNGGA,022233.00,3110.00593,N,12117.31344,E,4,12,0.50,6.5,M,9.5,M,1.0,2525*5A
$GNRMC,022234.00,A,3110.00593,N,12117.31344,E,0.008,,030919,,,R,V*01
$GNGGA,022234.00,3110.00593,N,12117.31344,E,4,12,0.50,6.5,M,9.5,M,1.0,2525*5D
$GNRMC,022235.00,A,3110.00593,N,12117.31344,E,0.009,,030919,,,R,V*01
$GNGGA,022235.00,3110.00593,N,12117.31344,E,4,12,0.50,6.5,M,9.5,M,1.0,2525*5C
$GNRMC,022236.00,A,3110.00593,N,12117.31345,E,0.011,,030919,,,R,V*0A
$GNGGA,022236.00,3110.00593,N,12117.31345,E,4,12,0.53,6.5,M,9.5,M,1.0,2525*5D
$GNRMC,022237.00,A,3110.00592,N,12117.31345,E,0.012,,030919,,,R,V*09
$GNGGA,022237.00,3110.00592,N,12117.31345,E,4,12,0.53,6.6,M,9.5,M,1.0,2525*5E
$GNRMC,022238.00,A,3110.00593,N,12117.31345,E,0.005,,030919,,,R,V*01
$GNGGA,022238.00,3110.00593,N,12117.31345,E,4,12,0.53,6.6,M,9.5,M,1.0,2525*50
$GNRMC,022239.00,A,3110.00592,N,12117.31344,E,0.011,,030919,,,R,V*05
$GNGGA,022239.00,3110.00592,N,12117.31344,E,4,12,0.53,6.6,M,9.5,M,1.0,2525*51
$GNRMC,022240.00,A,3110.00593,N,12117.31345,E,0.011,,030919,,,R,V*0B
$GNGGA,022240.00,3110.00593,N,12117.31345,E,4,12,0.53,6.6,M,9.5,M,1.0,2525*5F
$GNRMC,022241.00,A,3110.00593,N,12117.31344,E,0.009,,030919,,,R,V*02
$GNGGA,022241.00,3110.00593,N,12117.31344,E,4,12,0.53,6.6,M,9.5,M,1.0,2525*5F
$GNRMC,022242.00,A,3110.00592,N,12117.31344,E,0.014,,030919,,,R,V*0C
$GNGGA,022242.00,3110.00592,N,12117.31344,E,4,12,0.53,6.6,M,9.5,M,2.0,2525*5E
$GNRMC,022243.00,A,3110.00593,N,12117.31344,E,0.010,,030919,,,R,V*08
$GNGGA,022243.00,3110.00593,N,12117.31344,E,4,12,0.53,6.6,M,9.5,M,3.0,2525*5F
$GNRMC,022244.00,A,3110.00592,N,12117.31344,E,0.009,,030919,,,R,V*06
$GNGGA,022244.00,3110.00592,N,12117.31344,E,4,12,0.53,6.6,M,9.5,M,4.0,2525*5E
$GNRMC,022245.00,A,3110.00592,N,12117.31344,E,0.003,,030919,,,R,V*0D
$GNGGA,022245.00,3110.00592,N,12117.31344,E,4,12,0.53,6.6,M,9.5,M,1.0,2525*5A
$GNRMC,022246.00,A,3110.00592,N,12117.31344,E,0.009,,030919,,,R,V*04
$GNGGA,022246.00,3110.00592,N,12117.31344,E,4,12,0.53,6.6,M,9.5,M,2.0,2525*5A
$GNRMC,022247.00,A,3110.00592,N,12117.31344,E,0.011,,030919,,,R,V*0C
$GNGGA,022247.00,3110.00592,N,12117.31344,E,4,12,0.53,6.6,M,9.5,M,1.0,2525*58
$GNRMC,022248.00,A,3110.00592,N,12117.31345,E,0.008,,030919,,,R,V*0A
$GNGGA,022248.00,3110.00592,N,12117.31345,E,4,12,0.53,6.6,M,9.5,M,1.0,2525*56
$GNRMC,022249.00,A,3110.00593,N,12117.31344,E,0.005,,030919,,,R,V*06
$GNGGA,022249.00,3110.00593,N,12117.31344,E,4,12,0.53,6.6,M,9.5,M,1.0,2525*57
$GNRMC,022250.00,A,3110.00593,N,12117.31345,E,0.010,,030919,,,R,V*0B
$GNGGA,022250.00,3110.00593,N,12117.31345,E,4,12,0.53,6.6,M,9.5,M,1.0,2525*5E
$GNRMC,022251.00,A,3110.00596,N,12117.31352,E,0.449,63.54,030919,,,R,V*2B
$GNGGA,022251.00,3110.00596,N,12117.31352,E,4,12,0.53,6.6,M,9.5,M,1.0,2525*5C
$GNRMC,022252.00,A,3110.00610,N,12117.31387,E,1.559,62.91,030919,,,R,V*24
$GNGGA,022252.00,3110.00610,N,12117.31387,E,4,12,0.53,6.6,M,9.5,M,1.0,2525*5A
$GNRMC,022253.00,A,3110.00644,N,12117.31466,E,3.242,63.71,030919,,,R,V*2C
$GNGGA,022253.00,3110.00644,N,12117.31466,E,4,12,0.55,6.6,M,9.5,M,1.0,2525*54
$GNRMC,022254.00,A,3110.00688,N,12117.31563,E,3.385,62.28,030919,,,R,V*28
$GNGGA,022254.00,3110.00688,N,12117.31563,E,4,12,0.55,6.6,M,9.5,M,1.0,2525*57
$GNRMC,022255.00,A,3110.00734,N,12117.31665,E,3.674,60.63,030919,,,R,V*2C
$GNGGA,022255.00,3110.00734,N,12117.31665,E,4,12,0.54,6.6,M,9.5,M,1.0,2525*54
$GNRMC,022256.00,A,3110.00779,N,12117.31761,E,3.310,61.86,030919,,,R,V*2E
$GNGGA,022256.00,3110.00779,N,12117.31761,E,4,12,0.52,6.6,M,9.5,M,1.0,2525*5D
$GNRMC,022257.00,A,3110.00824,N,12117.31856,E,3.396,62.67,030919,,,R,V*21
$GNGGA,022257.00,3110.00824,N,12117.31856,E,4,12,0.53,6.6,M,9.5,M,1.0,2525*51
$GNRMC,022258.00,A,3110.00872,N,12117.31963,E,3.898,61.89,030919,,,R,V*2C
$GNGGA,022258.00,3110.00872,N,12117.31963,E,4,12,0.56,6.6,M,9.5,M,1.0,2525*5F
$GNRMC,022259.00,A,3110.00929,N,12117.32094,E,4.816,62.40,030919,,,R,V*27
$GNGGA,022259.00,3110.00929,N,12117.32094,E,4,12,0.53,6.5,M,9.5,M,1.0,2525*55
$GNRMC,022300.00,A,3110.00999,N,12117.32251,E,5.604,62.69,030919,,,R,V*2D
$GNGGA,022300.00,3110.00999,N,12117.32251,E,4,12,0.53,6.5,M,9.5,M,1.0,2525*58
$GNRMC,022301.00,A,3110.01075,N,12117.32423,E,6.096,62.62,030919,,,R,V*20
$GNGGA,022301.00,3110.01075,N,12117.32423,E,4,12,0.51,6.6,M,9.5,M,1.0,2525*51
$GNRMC,022302.00,A,3110.01155,N,12117.32601,E,6.166,62.51,030919,,,R,V*2C
$GNGGA,022302.00,3110.01155,N,12117.32601,E,4,12,0.51,6.6,M,9.5,M,1.0,2525*53
$GNRMC,022303.00,A,3110.01231,N,12117.32772,E,5.817,62.32,030919,,,R,V*20
$GNGGA,022303.00,3110.01231,N,12117.32772,E,4,12,0.51,6.6,M,9.5,M,1.0,2525*56
$GNRMC,022304.00,A,3110.01312,N,12117.32950,E,6.413,61.57,030919,,,R,V*22
$GNGGA,022304.00,3110.01312,N,12117.32950,E,4,12,0.51,6.6,M,9.5,M,1.0,2525*5F
$GNRMC,022305.00,A,3110.01403,N,12117.33140,E,6.704,60.32,030919,,,R,V*2B
$GNGGA,022305.00,3110.01403,N,12117.33140,E,4,12,0.51,6.6,M,9.5,M,1.0,2525*51
$GNRMC,022306.00,A,3110.01486,N,12117.33318,E,5.963,62.53,030919,,,R,V*23
$GNGGA,022306.00,3110.01486,N,12117.33318,E,4,12,0.51,6.6,M,9.5,M,1.0,2525*50
$GNRMC,022307.00,A,3110.01549,N,12117.33474,E,5.179,65.94,030919,,,R,V*22
$GNGGA,022307.00,3110.01549,N,12117.33474,E,4,12,0.51,6.6,M,9.5,M,1.0,2525*5E
$GNRMC,022308.00,A,3110.01597,N,12117.33617,E,4.517,70.03,030919,,,R,V*2E
$GNGGA,022308.00,3110.01597,N,12117.33617,E,4,12,0.51,6.6,M,9.5,M,1.0,2525*55
$GNRMC,022309.00,A,3110.01624,N,12117.33748,E,4.053,79.30,030919,,,R,V*23
$GNGGA,022309.00,3110.01624,N,12117.33748,E,4,12,0.50,6.6,M,9.5,M,2.0,2525*56
$GNRMC,022310.00,A,3110.01628,N,12117.33871,E,3.719,92.01,030919,,,R,V*2B
$GNGGA,022310.00,3110.01628,N,12117.33871,E,4,12,0.51,6.5,M,9.5,M,3.0,2525*54
$GNRMC,022311.00,A,3110.01606,N,12117.33988,E,3.683,106.00,030919,,,R,V*1E
$GNGGA,022311.00,3110.01606,N,12117.33988,E,4,12,0.51,6.6,M,9.5,M,3.0,2525*5D
$GNRMC,022312.00,A,3110.01561,N,12117.34098,E,3.940,118.77,030919,,,R,V*1F
$GNGGA,022312.00,3110.01561,N,12117.34098,E,4,12,0.53,6.6,M,9.5,M,1.0,2525*53
$GNRMC,022313.00,A,3110.01482,N,12117.34211,E,4.715,133.48,030919,,,R,V*1D
$GNGGA,022313.00,3110.01482,N,12117.34211,E,4,12,0.52,6.6,M,9.5,M,1.0,2525*5C
$GNRMC,022314.00,A,3110.01370,N,12117.34307,E,5.145,145.83,030919,,,R,V*12
$GNGGA,022314.00,3110.01370,N,12117.34307,E,4,12,0.58,6.6,M,9.5,M,1.0,2525*5D
$GNRMC,022315.00,A,3110.01225,N,12117.34401,E,6.552,151.27,030919,,,R,V*19
$GNGGA,022315.00,3110.01225,N,12117.34401,E,4,12,0.58,6.6,M,9.5,M,1.0,2525*5C
$GNRMC,022316.00,A,3110.01049,N,12117.34512,E,7.257,150.54,030919,,,R,V*17
$GNGGA,022316.00,3110.01049,N,12117.34512,E,4,12,0.60,6.6,M,9.5,M,1.0,2525*5F
$GNRMC,022317.00,A,3110.00886,N,12117.34644,E,7.123,142.32,030919,,,R,V*1F
$GNGGA,022317.00,3110.00886,N,12117.34644,E,4,12,0.60,6.6,M,9.5,M,1.0,2525*54
$GNRMC,022318.00,A,3110.00747,N,12117.34814,E,7.426,129.02,030919,,,R,V*17
$GNGGA,022318.00,3110.00747,N,12117.34814,E,4,12,0.60,6.6,M,9.5,M,1.0,2525*52
$GNRMC,022319.00,A,3110.00650,N,12117.35032,E,7.581,113.07,030919,,,R,V*1C
$GNGGA,022319.00,3110.00650,N,12117.35032,E,4,12,0.63,6.6,M,9.5,M,1.0,2525*5A
$GNRMC,022320.00,A,3110.00583,N,12117.35260,E,7.344,106.98,030919,,,R,V*13
$GNGGA,022320.00,3110.00583,N,12117.35260,E,4,12,0.65,6.6,M,9.5,M,1.0,2525*5E
$GNRMC,022321.00,A,3110.00535,N,12117.35480,E,6.866,103.62,030919,,,R,V*1D
$GNGGA,022321.00,3110.00535,N,12117.35480,E,4,12,0.72,6.8,M,9.5,M,1.0,2525*52
$GNRMC,022322.00,A,3110.00493,N,12117.35685,E,6.535,103.10,030919,,,R,V*1A
$GNGGA,022322.00,3110.00493,N,12117.35685,E,4,12,0.69,6.9,M,9.5,M,1.0,2525*50
$GNRMC,022323.00,A,3110.00445,N,12117.35916,E,7.592,105.47,030919,,,R,V*1D
$GNGGA,022323.00,3110.00445,N,12117.35916,E,4,12,0.69,6.9,M,9.5,M,1.0,2525*5F
$GNRMC,022324.00,A,3110.00375,N,12117.36140,E,7.152,111.75,030919,,,R,V*1A
$GNGGA,022324.00,3110.00375,N,12117.36140,E,4,12,0.80,6.9,M,9.5,M,1.0,2525*53
$GNRMC,022325.00,A,3110.00291,N,12117.36327,E,6.250,120.28,030919,,,R,V*19
$GNGGA,022325.00,3110.00291,N,12117.36327,E,4,12,1.00,6.9,M,9.5,M,1.0,2525*53
$GNRMC,022326.00,A,3110.00184,N,12117.36494,E,6.686,129.38,030919,,,R,V*15
$GNGGA,022326.00,3110.00184,N,12117.36494,E,4,12,1.00,6.7,M,9.5,M,1.0,2525*56
$GNRMC,022327.00,A,3110.00046,N,12117.36659,E,7.249,134.88,030919,,,R,V*19
$GNGGA,022327.00,3110.00046,N,12117.36659,E,4,12,0.77,6.8,M,9.5,M,1.0,2525*55
$GNRMC,022328.00,A,3109.99886,N,12117.36809,E,7.439,142.55,030919,,,R,V*11
$GNGGA,022328.00,3109.99886,N,12117.36809,E,4,12,0.80,6.8,M,9.5,M,1.0,2525*55
$GNRMC,022329.00,A,3109.99706,N,12117.36940,E,7.707,148.57,030919,,,R,V*1D
$GNGGA,022329.00,3109.99706,N,12117.36940,E,4,12,0.65,6.9,M,9.5,M,1.0,2525*55
$GNRMC,022330.00,A,3109.99514,N,12117.37069,E,8.104,150.77,030919,,,R,V*16
$GNGGA,022330.00,3109.99514,N,12117.37069,E,4,12,0.83,6.8,M,9.5,M,1.0,2525*56
$GNRMC,022331.00,A,3109.99306,N,12117.37196,E,8.527,151.76,030919,,,R,V*16
$GNGGA,022331.00,3109.99306,N,12117.37196,E,4,12,1.05,6.9,M,9.5,M,1.0,2525*5D
$GNRMC,022332.00,A,3109.99093,N,12117.37332,E,8.724,151.21,030919,,,R,V*15
$GNGGA,022332.00,3109.99093,N,12117.37332,E,4,12,0.79,6.9,M,9.5,M,2.0,2525*54
$GNRMC,022333.00,A,3109.98886,N,12117.37466,E,8.353,152.10,030919,,,R,V*1A
$GNGGA,022333.00,3109.98886,N,12117.37466,E,4,12,0.65,6.8,M,9.5,M,1.0,2525*51
$GNRMC,022334.00,A,3109.98668,N,12117.37605,E,9.240,151.63,030919,,,R,V*11
$GNGGA,022334.00,3109.98668,N,12117.37605,E,4,12,0.78,6.9,M,9.5,M,1.0,2525*52
$GNRMC,022335.00,A,3109.98445,N,12117.37746,E,9.021,151.61,030919,,,R,V*1C
$GNGGA,022335.00,3109.98445,N,12117.37746,E,4,12,0.68,6.9,M,9.5,M,1.0,2525*59
$GNRMC,022336.00,A,3109.98237,N,12117.37880,E,8.294,150.75,030919,,,R,V*10
$GNGGA,022336.00,3109.98237,N,12117.37880,E,4,12,0.59,6.9,M,9.5,M,2.0,2525*5D
$GNRMC,022337.00,A,3109.98049,N,12117.38006,E,7.547,150.71,030919,,,R,V*11
$GNGGA,022337.00,3109.98049,N,12117.38006,E,4,12,0.55,6.6,M,9.5,M,2.0,2525*5D
$GNRMC,022338.00,A,3109.97883,N,12117.38114,E,6.410,151.43,030919,,,R,V*1F
$GNGGA,022338.00,3109.97883,N,12117.38114,E,4,12,0.55,6.5,M,9.5,M,3.0,2525*53
$GNRMC,022339.00,A,3109.97737,N,12117.38197,E,5.718,155.77,030919,,,R,V*1E
$GNGGA,022339.00,3109.97737,N,12117.38197,E,4,12,0.53,6.5,M,9.5,M,1.0,2525*5D
$GNRMC,022340.00,A,3109.97578,N,12117.38261,E,6.237,162.46,030919,,,R,V*1E
$GNGGA,022340.00,3109.97578,N,12117.38261,E,4,12,0.52,6.5,M,9.5,M,1.0,2525*51
$GNRMC,022341.00,A,3109.97399,N,12117.38308,E,6.648,169.38,030919,,,R,V*16
$GNGGA,022341.00,3109.97399,N,12117.38308,E,4,12,0.52,6.6,M,9.5,M,1.0,2525*54
$GNRMC,022342.00,A,3109.97213,N,12117.38323,E,6.718,179.81,030919,,,R,V*18
$GNGGA,022342.00,3109.97213,N,12117.38323,E,4,12,0.52,6.6,M,9.5,M,1.0,2525*5D
$GNRMC,022343.00,A,3109.97030,N,12117.38288,E,6.640,193.97,030919,,,R,V*15
$GNGGA,022343.00,3109.97030,N,12117.38288,E,4,12,0.49,6.6,M,9.5,M,1.0,2525*55
$GNRMC,022344.00,A,3109.96874,N,12117.38198,E,6.040,211.66,030919,,,R,V*18
$GNGGA,022344.00,3109.96874,N,12117.38198,E,4,12,0.49,6.6,M,9.5,M,1.0,2525*59
$GNRMC,022345.00,A,3109.96763,N,12117.38074,E,5.414,229.15,030919,,,R,V*1A
$GNGGA,022345.00,3109.96763,N,12117.38074,E,4,12,0.52,6.6,M,9.5,M,1.0,2525*58
$GNRMC,022346.00,A,3109.96682,N,12117.37931,E,5.342,239.12,030919,,,R,V*12
$GNGGA,022346.00,3109.96682,N,12117.37931,E,4,12,0.52,6.6,M,9.5,M,1.0,2525*52
$GNRMC,022347.00,A,3109.96607,N,12117.37774,E,5.647,241.29,030919,,,R,V*16
$GNGGA,022347.00,3109.96607,N,12117.37774,E,4,12,0.51,6.6,M,9.5,M,1.0,2525*52
$GNRMC,022348.00,A,3109.96523,N,12117.37599,E,6.440,241.31,030919,,,R,V*12
$GNGGA,022348.00,3109.96523,N,12117.37599,E,4,12,0.52,6.6,M,9.5,M,1.0,2525*5A
$GNRMC,022349.00,A,3109.96437,N,12117.37401,E,7.046,244.11,030919,,,R,V*13
$GNGGA,022349.00,3109.96437,N,12117.37401,E,4,12,0.52,6.5,M,9.5,M,1.0,2525*5C
$GNRMC,022350.00,A,3109.96355,N,12117.37209,E,6.594,244.61,030919,,,R,V*1A
$GNGGA,022350.00,3109.96355,N,12117.37209,E,4,12,0.49,6.5,M,9.5,M,1.0,2525*53
$GNRMC,022351.00,A,3109.96275,N,12117.37019,E,6.457,243.57,030919,,,R,V*17
$GNGGA,022351.00,3109.96275,N,12117.37019,E,4,12,0.50,6.6,M,9.5,M,1.0,2525*59
$GNRMC,022352.00,A,3109.96186,N,12117.36825,E,7.031,241.97,030919,,,R,V*16
$GNGGA,022352.00,3109.96186,N,12117.36825,E,4,12,0.52,6.5,M,9.5,M,1.0,2525*52
$GNRMC,022353.00,A,3109.96090,N,12117.36613,E,7.486,242.58,030919,,,R,V*12
$GNGGA,022353.00,3109.96090,N,12117.36613,E,4,12,0.52,6.5,M,9.5,M,1.0,2525*5E
$GNRMC,022354.00,A,3109.95993,N,12117.36388,E,7.820,243.62,030919,,,R,V*13
$GNGGA,022354.00,3109.95993,N,12117.36388,E,4,12,0.52,6.6,M,9.5,M,1.0,2525*54
$GNRMC,022355.00,A,3109.95895,N,12117.36155,E,8.197,244.30,030919,,,R,V*1D
$GNGGA,022355.00,3109.95895,N,12117.36155,E,4,12,0.52,6.6,M,9.5,M,1.0,2525*50
$GNRMC,022356.00,A,3109.95788,N,12117.35909,E,8.620,242.31,030919,,,R,V*13
$GNGGA,022356.00,3109.95788,N,12117.35909,E,4,12,0.52,6.6,M,9.5,M,1.0,2525*52
$GNRMC,022357.00,A,3109.95669,N,12117.35657,E,8.966,240.95,030919,,,R,V*19
$GNGGA,022357.00,3109.95669,N,12117.35657,E,4,12,0.52,6.5,M,9.5,M,1.0,2525*5A
$GNRMC,022358.00,A,3109.95546,N,12117.35410,E,8.789,240.18,030919,,,R,V*13
$GNGGA,022358.00,3109.95546,N,12117.35410,E,4,12,0.52,6.5,M,9.5,M,1.0,2525*5A
$GNRMC,022359.00,A,3109.95430,N,12117.35166,E,8.428,241.74,030919,,,R,V*15
$GNGGA,022359.00,3109.95430,N,12117.35166,E,4,12,0.52,6.6,M,9.5,M,2.0,2525*5F
$GNRMC,022400.00,A,3109.95332,N,12117.34943,E,7.380,243.37,030919,,,R,V*1A
$GNGGA,022400.00,3109.95332,N,12117.34943,E,4,12,0.52,6.5,M,9.5,M,3.0,2525*5D
$GNRMC,022401.00,A,3109.95250,N,12117.34752,E,6.198,243.51,030919,,,R,V*1A
$GNGGA,022401.00,3109.95250,N,12117.34752,E,4,12,0.52,6.6,M,9.5,M,4.0,2525*53
$GNRMC,022402.00,A,3109.95177,N,12117.34583,E,5.756,243.18,030919,,,R,V*1B
$GNGGA,022402.00,3109.95177,N,12117.34583,E,4,12,0.52,6.5,M,9.5,M,5.0,2525*5A
$GNRMC,022403.00,A,3109.95103,N,12117.34415,E,5.951,242.84,030919,,,R,V*1A
$GNGGA,022403.00,3109.95103,N,12117.34415,E,4,12,0.52,6.5,M,9.5,M,6.0,2525*55
$GNRMC,022404.00,A,3109.95018,N,12117.34222,E,7.009,242.52,030919,,,R,V*19
$GNGGA,022404.00,3109.95018,N,12117.34222,E,4,12,0.52,6.5,M,9.5,M,1.0,2525*5C
$GNRMC,022405.00,A,3109.94920,N,12117.34004,E,7.793,241.91,030919,,,R,V*15
$GNGGA,022405.00,3109.94920,N,12117.34004,E,4,12,0.52,6.4,M,9.5,M,1.0,2525*59
$GNRMC,022406.00,A,3109.94813,N,12117.33773,E,8.209,241.61,030919,,,R,V*11
$GNGGA,022406.00,3109.94813,N,12117.33773,E,4,12,0.50,6.6,M,9.5,M,1.0,2525*5B
$GNRMC,022407.00,A,3109.94703,N,12117.33531,E,8.627,242.48,030919,,,R,V*1A
$GNGGA,022407.00,3109.94703,N,12117.33531,E,4,12,0.52,6.5,M,9.5,M,1.0,2525*51
$GNRMC,022408.00,A,3109.94593,N,12117.33283,E,8.584,243.14,030919,,,R,V*12
$GNGGA,022408.00,3109.94593,N,12117.33283,E,4,12,0.54,6.5,M,9.5,M,1.0,2525*5D
$GNRMC,022409.00,A,3109.94486,N,12117.33030,E,8.870,244.80,030919,,,R,V*10
$GNGGA,022409.00,3109.94486,N,12117.33030,E,4,12,0.52,6.5,M,9.5,M,2.0,2525*56
$GNRMC,022410.00,A,3109.94372,N,12117.32768,E,9.198,242.42,030919,,,R,V*19
$GNGGA,022410.00,3109.94372,N,12117.32768,E,4,12,0.52,6.5,M,9.5,M,3.0,2525*58
$GNRMC,022411.00,A,3109.94249,N,12117.32505,E,9.264,241.28,030919,,,R,V*17
$GNGGA,022411.00,3109.94249,N,12117.32505,E,4,12,0.52,6.5,M,9.5,M,1.0,2525*5B
$GNRMC,022412.00,A,3109.94125,N,12117.32238,E,9.361,241.85,030919,,,R,V*17
$GNGGA,022412.00,3109.94125,N,12117.32238,E,4,12,0.52,6.5,M,9.5,M,1.0,2525*58
$GNRMC,022413.00,A,3109.93999,N,12117.31966,E,9.592,242.06,030919,,,R,V*1F
$GNGGA,022413.00,3109.93999,N,12117.31966,E,4,12,0.53,6.5,M,9.5,M,1.0,2525*53
$GNRMC,022414.00,A,3109.93874,N,12117.31690,E,9.725,242.23,030919,,,R,V*15
$GNGGA,022414.00,3109.93874,N,12117.31690,E,4,12,0.52,6.6,M,9.5,M,1.0,2525*52
$GNRMC,022415.00,A,3109.93751,N,12117.31409,E,9.895,243.70,030919,,,R,V*1D
$GNGGA,022415.00,3109.93751,N,12117.31409,E,4,12,0.53,6.5,M,9.5,M,1.0,2525*5B
$GNRMC,022416.00,A,3109.93633,N,12117.31122,E,9.754,244.26,030919,,,R,V*11
$GNGGA,022416.00,3109.93633,N,12117.31122,E,4,12,0.54,6.6,M,9.5,M,1.0,2525*55
$GNRMC,022417.00,A,3109.93514,N,12117.30843,E,9.555,243.60,030919,,,R,V*1F
$GNGGA,022417.00,3109.93514,N,12117.30843,E,4,12,0.55,6.6,M,9.5,M,1.0,2525*5C
$GNRMC,022418.00,A,3109.93395,N,12117.30576,E,9.165,242.19,030919,,,R,V*1C
$GNGGA,022418.00,3109.93395,N,12117.30576,E,4,12,0.55,6.6,M,9.5,M,1.0,2525*57
$GNRMC,022419.00,A,3109.93278,N,12117.30320,E,8.947,241.77,030919,,,R,V*18
$GNGGA,022419.00,3109.93278,N,12117.30320,E,4,12,0.54,6.5,M,9.5,M,1.0,2525*53
$GNRMC,022420.00,A,3109.93160,N,12117.30059,E,9.160,242.88,030919,,,R,V*1A
$GNGGA,022420.00,3109.93160,N,12117.30059,E,4,12,0.54,6.5,M,9.5,M,1.0,2525*5E
$GNRMC,022421.00,A,3109.93046,N,12117.29784,E,9.474,244.65,030919,,,R,V*14
$GNGGA,022421.00,3109.93046,N,12117.29784,E,4,12,0.56,6.5,M,9.5,M,1.0,2525*57
$GNRMC,022422.00,A,3109.92927,N,12117.29499,E,9.943,244.30,030919,,,R,V*1E
$GNGGA,022422.00,3109.92927,N,12117.29499,E,4,12,0.54,6.5,M,9.5,M,1.0,2525*56
$GNRMC,022423.00,A,3109.92795,N,12117.29206,E,10.354,241.85,030919,,,R,V*27
$GNGGA,022423.00,3109.92795,N,12117.29206,E,4,12,0.53,6.5,M,9.5,M,1.0,2525*57
$GNRMC,022424.00,A,3109.92656,N,12117.28917,E,10.209,241.03,030919,,,R,V*23
$GNGGA,022424.00,3109.92656,N,12117.28917,E,4,12,0.53,6.6,M,9.5,M,1.0,2525*57
$GNRMC,022425.00,A,3109.92515,N,12117.28626,E,10.346,240.44,030919,,,R,V*23
$GNGGA,022425.00,3109.92515,N,12117.28626,E,4,12,0.57,6.6,M,9.5,M,1.0,2525*5B
$GNRMC,022426.00,A,3109.92374,N,12117.28336,E,10.263,240.58,030919,,,R,V*2E
$GNGGA,022426.00,3109.92374,N,12117.28336,E,4,12,0.54,6.5,M,9.5,M,1.0,2525*5D
$GNRMC,022427.00,A,3109.92249,N,12117.28040,E,10.117,244.59,030919,,,R,V*27
$GNGGA,022427.00,3109.92249,N,12117.28040,E,4,12,0.53,6.5,M,9.5,M,1.0,2525*56
$GNRMC,022428.00,A,3109.92136,N,12117.27763,E,9.125,244.37,030919,,,R,V*1B
$GNGGA,022428.00,3109.92136,N,12117.27763,E,4,12,0.52,6.5,M,9.5,M,1.0,2525*5A
$GNRMC,022429.00,A,3109.92033,N,12117.27518,E,8.049,242.89,030919,,,R,V*19
$GNGGA,022429.00,3109.92033,N,12117.27518,E,4,12,0.55,6.5,M,9.5,M,1.0,2525*56
$GNRMC,022430.00,A,3109.91940,N,12117.27305,E,7.139,243.92,030919,,,R,V*17
$GNGGA,022430.00,3109.91940,N,12117.27305,E,4,12,0.53,6.6,M,9.5,M,1.0,2525*5F
$GNRMC,022431.00,A,3109.91878,N,12117.27100,E,6.537,255.98,030919,,,R,V*1D
$GNGGA,022431.00,3109.91878,N,12117.27100,E,4,12,0.52,6.6,M,9.5,M,1.0,2525*52
$GNRMC,022432.00,A,3109.91878,N,12117.26903,E,5.920,276.77,030919,,,R,V*1D
$GNGGA,022432.00,3109.91878,N,12117.26903,E,4,12,0.55,6.6,M,9.5,M,2.0,2525*5F
$GNRMC,022433.00,A,3109.91934,N,12117.26727,E,5.711,296.60,030919,,,R,V*19
$GNGGA,022433.00,3109.91934,N,12117.26727,E,4,12,0.52,6.6,M,9.5,M,1.0,2525*5B
$GNRMC,022434.00,A,3109.92032,N,12117.26583,E,5.759,312.31,030919,,,R,V*1B
$GNGGA,022434.00,3109.92032,N,12117.26583,E,4,12,0.53,6.6,M,9.5,M,1.0,2525*5D
$GNRMC,022435.00,A,3109.92169,N,12117.26466,E,6.374,327.85,030919,,,R,V*1E
$GNGGA,022435.00,3109.92169,N,12117.26466,E,4,12,0.55,6.5,M,9.5,M,1.0,2525*5C
$GNRMC,022436.00,A,3109.92349,N,12117.26354,E,7.790,332.83,030919,,,R,V*16
$GNGGA,022436.00,3109.92349,N,12117.26354,E,4,12,0.60,6.5,M,9.5,M,1.0,2525*5F
$GNRMC,022437.00,A,3109.92561,N,12117.26218,E,9.033,330.22,030919,,,R,V*1B
$GNGGA,022437.00,3109.92561,N,12117.26218,E,4,12,0.59,6.5,M,9.5,M,2.0,2525*52
$GNRMC,022438.00,A,3109.92795,N,12117.26068,E,9.793,332.45,030919,,,R,V*16
$GNGGA,022438.00,3109.92795,N,12117.26068,E,4,12,0.62,6.6,M,9.5,M,3.0,2525*5B
$GNRMC,022439.00,A,3109.93046,N,12117.25926,E,10.126,333.45,030919,,,R,V*2E
$GNGGA,022439.00,3109.93046,N,12117.25926,E,4,12,0.60,6.5,M,9.5,M,2.0,2525*52
$GNRMC,022440.00,A,3109.93308,N,12117.25775,E,10.780,333.65,030919,,,R,V*29
$GNGGA,022440.00,3109.93308,N,12117.25775,E,4,12,0.83,6.6,M,9.5,M,1.0,2525*50
$GNRMC,022441.00,A,3109.93583,N,12117.25607,E,11.214,331.37,030919,,,R,V*25
$GNGGA,022441.00,3109.93583,N,12117.25607,E,4,12,1.01,6.6,M,9.5,M,1.0,2525*5B
$GNRMC,022442.00,A,3109.93856,N,12117.25446,E,10.925,333.87,030919,,,R,V*25
$GNGGA,022442.00,3109.93856,N,12117.25446,E,4,12,0.98,6.5,M,9.5,M,1.0,2525*58
$GNRMC,022443.00,A,3109.94129,N,12117.25289,E,11.119,333.51,030919,,,R,V*2A
$GNGGA,022443.00,3109.94129,N,12117.25289,E,4,12,1.07,6.5,M,9.5,M,1.0,2525*5D
$GNRMC,022444.00,A,3109.94413,N,12117.25117,E,11.543,332.69,030919,,,R,V*24
$GNGGA,022444.00,3109.94413,N,12117.25117,E,4,12,0.86,6.5,M,9.4,M,1.0,2525*5B
$GNRMC,022445.00,A,3109.94693,N,12117.24949,E,11.218,333.32,030919,,,R,V*2B
$GNGGA,022445.00,3109.94693,N,12117.24949,E,4,12,1.01,6.5,M,9.4,M,1.0,2525*5C
$GNRMC,022446.00,A,3109.94963,N,12117.24782,E,10.931,331.62,030919,,,R,V*27
$GNGGA,022446.00,3109.94963,N,12117.24782,E,4,12,0.83,6.6,M,9.4,M,1.0,2525*5E
$GNRMC,022447.00,A,3109.95225,N,12117.24612,E,10.716,331.27,030919,,,R,V*2C
$GNGGA,022447.00,3109.95225,N,12117.24612,E,4,12,0.83,6.6,M,9.4,M,1.0,2525*5F
$GNRMC,022448.00,A,3109.95469,N,12117.24451,E,9.724,330.40,030919,,,R,V*11
$GNGGA,022448.00,3109.95469,N,12117.24451,E,4,12,0.65,6.6,M,9.4,M,1.0,2525*53
$GNRMC,022449.00,A,3109.95695,N,12117.24311,E,9.126,333.25,030919,,,R,V*16
$GNGGA,022449.00,3109.95695,N,12117.24311,E,4,12,0.64,6.5,M,9.4,M,1.0,2525*52
$GNRMC,022450.00,A,3109.95923,N,12117.24180,E,9.145,332.94,030919,,,R,V*18
$GNGGA,022450.00,3109.95923,N,12117.24180,E,4,12,0.60,6.6,M,9.4,M,1.0,2525*55
$GNRMC,022451.00,A,3109.96144,N,12117.24043,E,8.901,330.93,030919,,,R,V*11
$GNGGA,022451.00,3109.96144,N,12117.24043,E,4,12,0.55,6.6,M,9.4,M,1.0,2525*56
$GNRMC,022452.00,A,3109.96351,N,12117.23910,E,8.297,331.43,030919,,,R,V*14
$GNGGA,022452.00,3109.96351,N,12117.23910,E,4,12,0.54,6.5,M,9.4,M,1.0,2525*59
$GNRMC,022453.00,A,3109.96549,N,12117.23799,E,7.751,335.52,030919,,,R,V*11
$GNGGA,022453.00,3109.96549,N,12117.23799,E,4,12,0.53,6.6,M,9.4,M,1.0,2525*5C
$GNRMC,022454.00,A,3109.96744,N,12117.23724,E,7.246,345.29,030919,,,R,V*17
$GNGGA,022454.00,3109.96744,N,12117.23724,E,4,12,0.53,6.5,M,9.4,M,1.0,2525*51
$GNRMC,022455.00,A,3109.96936,N,12117.23709,E,6.835,1.91,030919,,,R,V*1D
$GNGGA,022455.00,3109.96936,N,12117.23709,E,4,12,0.52,6.6,M,9.4,M,1.0,2525*56
$GNRMC,022456.00,A,3109.97113,N,12117.23764,E,6.418,20.50,030919,,,R,V*26
$GNGGA,022456.00,3109.97113,N,12117.23764,E,4,12,0.55,6.6,M,9.4,M,1.0,2525*57
$GNRMC,022457.00,A,3109.97259,N,12117.23878,E,6.262,40.00,030919,,,R,V*20
$GNGGA,022457.00,3109.97259,N,12117.23878,E,4,12,0.53,6.6,M,9.4,M,1.0,2525*5F
$GNRMC,022458.00,A,3109.97369,N,12117.24038,E,6.338,55.34,030919,,,R,V*2B
$GNGGA,022458.00,3109.97369,N,12117.24038,E,4,12,0.51,6.6,M,9.4,M,1.0,2525*5B
$GNRMC,022459.00,A,3109.97460,N,12117.24226,E,6.442,63.68,030919,,,R,V*2F
$GNGGA,022459.00,3109.97460,N,12117.24226,E,4,12,0.52,6.6,M,9.4,M,1.0,2525*5A
$GNRMC,022500.00,A,3109.97540,N,12117.24428,E,7.005,64.89,030919,,,R,V*27
$GNGGA,022500.00,3109.97540,N,12117.24428,E,4,12,0.51,6.6,M,9.4,M,1.0,2525*5F
$GNRMC,022501.00,A,3109.97629,N,12117.24641,E,7.435,63.64,030919,,,R,V*24
$GNGGA,022501.00,3109.97629,N,12117.24641,E,4,12,0.54,6.6,M,9.4,M,1.0,2525*5A
$GNRMC,022502.00,A,3109.97723,N,12117.24868,E,7.842,63.33,030919,,,R,V*27
$GNGGA,022502.00,3109.97723,N,12117.24868,E,4,12,0.57,6.5,M,9.4,M,1.0,2525*57
$GNRMC,022503.00,A,3109.97826,N,12117.25110,E,8.464,63.70,030919,,,R,V*2B
$GNGGA,022503.00,3109.97826,N,12117.25110,E,4,12,0.62,6.5,M,9.4,M,1.0,2525*5D
$GNRMC,022504.00,A,3109.97934,N,12117.25354,E,8.389,62.17,030919,,,R,V*28
$GNGGA,022504.00,3109.97934,N,12117.25354,E,4,12,0.54,6.6,M,9.4,M,1.0,2525*5C
$GNRMC,022505.00,A,3109.98043,N,12117.25583,E,7.911,61.26,030919,,,R,V*26
$GNGGA,022505.00,3109.98043,N,12117.25583,E,4,12,0.54,6.5,M,9.4,M,2.0,2525*57
$GNRMC,022506.00,A,3109.98144,N,12117.25803,E,7.584,61.65,030919,,,R,V*21
$GNGGA,022506.00,3109.98144,N,12117.25803,E,4,12,0.54,6.5,M,9.4,M,3.0,2525*56
$GNRMC,022507.00,A,3109.98237,N,12117.26008,E,6.827,63.08,030919,,,R,V*2B
$GNGGA,022507.00,3109.98237,N,12117.26008,E,4,12,0.54,6.6,M,9.5,M,4.0,2525*55
$GNRMC,022508.00,A,3109.98322,N,12117.26200,E,6.680,63.28,030919,,,R,V*2A
$GNGGA,022508.00,3109.98322,N,12117.26200,E,4,12,0.54,6.6,M,9.5,M,1.0,2525*50
$GNRMC,022509.00,A,3109.98406,N,12117.26392,E,6.464,63.66,030919,,,R,V*22
$GNGGA,022509.00,3109.98406,N,12117.26392,E,4,12,0.54,6.6,M,9.5,M,1.0,2525*5A
$GNRMC,022510.00,A,3109.98487,N,12117.26584,E,6.533,64.41,030919,,,R,V*23
$GNGGA,022510.00,3109.98487,N,12117.26584,E,4,12,0.52,6.6,M,9.5,M,1.0,2525*5C
$GNRMC,022511.00,A,3109.98564,N,12117.26774,E,6.513,64.55,030919,,,R,V*24
$GNGGA,022511.00,3109.98564,N,12117.26774,E,4,12,0.52,6.5,M,9.5,M,1.0,2525*5F
$GNRMC,022512.00,A,3109.98641,N,12117.26964,E,6.467,63.92,030919,,,R,V*22
$GNGGA,022512.00,3109.98641,N,12117.26964,E,4,12,0.52,6.6,M,9.5,M,1.0,2525*54
$GNRMC,022513.00,A,3109.98728,N,12117.27166,E,7.221,62.92,030919,,,R,V*22
$GNGGA,022513.00,3109.98728,N,12117.27166,E,4,12,0.54,6.5,M,9.5,M,1.0,2525*55
$GNRMC,022514.00,A,3109.98829,N,12117.27399,E,8.445,63.48,030919,,,R,V*24
$GNGGA,022514.00,3109.98829,N,12117.27399,E,4,12,0.52,6.6,M,9.5,M,1.0,2525*5B
$GNRMC,022515.00,A,3109.98933,N,12117.27653,E,8.776,64.49,030919,,,R,V*29
$GNGGA,022515.00,3109.98933,N,12117.27653,E,4,12,0.52,6.6,M,9.5,M,1.0,2525*53
$GNRMC,022516.00,A,3109.99042,N,12117.27917,E,9.175,64.40,030919,,,R,V*26
$GNGGA,022516.00,3109.99042,N,12117.27917,E,4,12,0.52,6.6,M,9.5,M,1.0,2525*51
$GNRMC,022517.00,A,3109.99155,N,12117.28180,E,8.976,62.60,030919,,,R,V*27
$GNGGA,022517.00,3109.99155,N,12117.28180,E,4,12,0.52,6.6,M,9.5,M,1.0,2525*5E
$GNRMC,022518.00,A,3109.99272,N,12117.28422,E,8.341,59.91,030919,,,R,V*2B
$GNGGA,022518.00,3109.99272,N,12117.28422,E,4,12,0.52,6.6,M,9.5,M,1.0,2525*5A
$GNRMC,022519.00,A,3109.99378,N,12117.28642,E,7.637,60.99,030919,,,R,V*2C
$GNGGA,022519.00,3109.99378,N,12117.28642,E,4,12,0.52,6.6,M,9.5,M,1.0,2525*54
$GNRMC,022520.00,A,3109.99484,N,12117.28861,E,7.960,60.76,030919,,,R,V*21
$GNGGA,022520.00,3109.99484,N,12117.28861,E,4,12,0.52,6.6,M,9.5,M,1.0,2525*55
$GNRMC,022521.00,A,3109.99595,N,12117.29093,E,8.302,60.87,030919,,,R,V*2A
$GNGGA,022521.00,3109.99595,N,12117.29093,E,4,12,0.52,6.6,M,9.5,M,1.0,2525*51
$GNRMC,022522.00,A,3109.99704,N,12117.29323,E,8.046,61.30,030919,,,R,V*25
$GNGGA,022522.00,3109.99704,N,12117.29323,E,4,12,0.52,6.6,M,9.5,M,1.0,2525*50
$GNRMC,022523.00,A,3109.99807,N,12117.29553,E,8.045,62.81,030919,,,R,V*23
$GNGGA,022523.00,3109.99807,N,12117.29553,E,4,12,0.52,6.6,M,9.5,M,1.0,2525*5C
$GNRMC,022524.00,A,3109.99909,N,12117.29793,E,8.281,64.11,030919,,,R,V*20
$GNGGA,022524.00,3109.99909,N,12117.29793,E,4,12,0.52,6.6,M,9.5,M,1.0,2525*5A
$GNRMC,022525.00,A,3110.00004,N,12117.30020,E,7.643,63.78,030919,,,R,V*27
$GNGGA,022525.00,3110.00004,N,12117.30020,E,4,12,0.50,6.6,M,9.5,M,1.0,2525*52
$GNRMC,022526.00,A,3110.00097,N,12117.30241,E,7.716,63.95,030919,,,R,V*29
$GNGGA,022526.00,3110.00097,N,12117.30241,E,4,12,0.50,6.6,M,9.5,M,1.0,2525*5E
$GNRMC,022527.00,A,3110.00196,N,12117.30470,E,7.975,62.80,030919,,,R,V*22
$GNGGA,022527.00,3110.00196,N,12117.30470,E,4,12,0.50,6.6,M,9.5,M,1.0,2525*5B
$GNRMC,022528.00,A,3110.00300,N,12117.30697,E,7.950,61.92,030919,,,R,V*2C
$GNGGA,022528.00,3110.00300,N,12117.30697,E,4,12,0.52,6.6,M,9.5,M,1.0,2525*50
$GNRMC,022529.00,A,3110.00406,N,12117.30924,E,8.116,60.85,030919,,,R,V*29
$GNGGA,022529.00,3110.00406,N,12117.30924,E,4,12,0.52,6.6,M,9.5,M,1.0,2525*57
$GNRMC,022530.00,A,3110.00517,N,12117.31164,E,8.581,62.38,030919,,,R,V*23
$GNGGA,022530.00,3110.00517,N,12117.31164,E,4,12,0.54,6.6,M,9.5,M,1.0,2525*55
$GNRMC,022531.00,A,3110.00628,N,12117.31417,E,8.818,63.00,030919,,,R,V*2B
$GNGGA,022531.00,3110.00628,N,12117.31417,E,4,12,0.52,6.6,M,9.5,M,1.0,2525*5C
$GNRMC,022532.00,A,3110.00737,N,12117.31674,E,8.868,63.50,030919,,,R,V*22
$GNGGA,022532.00,3110.00737,N,12117.31674,E,4,12,0.52,6.6,M,9.5,M,1.0,2525*57
$GNRMC,022533.00,A,3110.00849,N,12117.31931,E,8.888,62.36,030919,,,R,V*24
$GNGGA,022533.00,3110.00849,N,12117.31931,E,4,12,0.50,6.6,M,9.5,M,2.0,2525*5F
$GNRMC,022534.00,A,3110.00963,N,12117.32192,E,9.025,62.41,030919,,,R,V*26
$GNGGA,022534.00,3110.00963,N,12117.32192,E,4,12,0.55,6.5,M,9.5,M,3.0,2525*54
$GNRMC,022535.00,A,3110.01073,N,12117.32440,E,8.365,63.01,030919,,,R,V*27
$GNGGA,022535.00,3110.01073,N,12117.32440,E,4,12,0.51,6.6,M,9.5,M,1.0,2525*53
$GNRMC,022536.00,A,3110.01184,N,12117.32679,E,8.480,61.79,030919,,,R,V*24
$GNGGA,022536.00,3110.01184,N,12117.32679,E,4,12,0.52,6.6,M,9.5,M,1.0,2525*52
$GNRMC,022537.00,A,3110.01297,N,12117.32918,E,8.311,60.87,030919,,,R,V*23
$GNGGA,022537.00,3110.01297,N,12117.32918,E,4,12,0.52,6.6,M,9.5,M,1.0,2525*5A
$GNRMC,022538.00,A,3110.01401,N,12117.33135,E,7.385,60.72,030919,,,R,V*2B
$GNGGA,022538.00,3110.01401,N,12117.33135,E,4,12,0.50,6.6,M,9.5,M,1.0,2525*58
$GNRMC,022539.00,A,3110.01495,N,12117.33336,E,6.938,62.08,030919,,,R,V*24
$GNGGA,022539.00,3110.01495,N,12117.33336,E,4,12,0.49,6.6,M,9.5,M,1.0,2525*5D
$GNRMC,022540.00,A,3110.01565,N,12117.33542,E,6.792,71.74,030919,,,R,V*26
$GNGGA,022540.00,3110.01565,N,12117.33542,E,4,12,0.50,6.6,M,9.5,M,1.0,2525*50
$GNRMC,022541.00,A,3110.01590,N,12117.33761,E,6.726,87.67,030919,,,R,V*2A
$GNGGA,022541.00,3110.01590,N,12117.33761,E,4,12,0.50,6.6,M,9.5,M,1.0,2525*58
$GNRMC,022542.00,A,3110.01560,N,12117.33967,E,6.297,104.12,030919,,,R,V*19
$GNGGA,022542.00,3110.01560,N,12117.33967,E,4,12,0.53,6.6,M,9.5,M,1.0,2525*5F
$GNRMC,022543.00,A,3110.01480,N,12117.34146,E,6.395,122.48,030919,,,R,V*13
$GNGGA,022543.00,3110.01480,N,12117.34146,E,4,12,0.52,6.6,M,9.5,M,1.0,2525*5C
$GNRMC,022544.00,A,3110.01340,N,12117.34304,E,7.332,140.15,030919,,,R,V*1B
$GNGGA,022544.00,3110.01340,N,12117.34304,E,4,12,0.56,6.6,M,9.5,M,1.0,2525*50
$GNRMC,022545.00,A,3110.01154,N,12117.34430,E,7.917,151.37,030919,,,R,V*10
$GNGGA,022545.00,3110.01154,N,12117.34430,E,4,12,0.56,6.6,M,9.5,M,1.0,2525*56
$GNRMC,022546.00,A,3110.00954,N,12117.34564,E,8.477,147.38,030919,,,R,V*16
$GNGGA,022546.00,3110.00954,N,12117.34564,E,4,12,0.59,6.6,M,9.5,M,1.0,2525*53
$GNRMC,022547.00,A,3110.00772,N,12117.34760,E,9.203,132.68,030919,,,R,V*18
$GNGGA,022547.00,3110.00772,N,12117.34760,E,4,12,0.59,6.6,M,9.5,M,2.0,2525*5D
$GNRMC,022548.00,A,3110.00632,N,12117.35041,E,10.378,115.16,030919,,,R,V*2E
$GNGGA,022548.00,3110.00632,N,12117.35041,E,4,12,0.61,6.6,M,9.5,M,1.0,2525*5A
$GNRMC,022549.00,A,3110.00532,N,12117.35381,E,11.285,106.38,030919,,,R,V*2F
$GNGGA,022549.00,3110.00532,N,12117.35381,E,4,12,0.62,6.6,M,9.5,M,1.0,2525*54
$GNRMC,022550.00,A,3110.00448,N,12117.35730,E,11.208,105.06,030919,,,R,V*2E
$GNGGA,022550.00,3110.00448,N,12117.35730,E,4,12,0.68,6.7,M,9.5,M,1.0,2525*55
$GNRMC,022551.00,A,3110.00364,N,12117.36064,E,10.333,108.44,030919,,,R,V*20
$GNGGA,022551.00,3110.00364,N,12117.36064,E,4,12,0.83,6.6,M,9.5,M,1.0,2525*5C
$GNRMC,022552.00,A,3110.00250,N,12117.36343,E,9.158,119.55,030919,,,R,V*14
$GNGGA,022552.00,3110.00250,N,12117.36343,E,4,12,0.80,6.6,M,9.5,M,1.0,2525*5C
$GNRMC,022553.00,A,3110.00095,N,12117.36572,E,9.064,131.08,030919,,,R,V*16
$GNGGA,022553.00,3110.00095,N,12117.36572,E,4,12,0.93,6.7,M,9.5,M,1.0,2525*51
$GNRMC,022554.00,A,3109.99908,N,12117.36771,E,9.154,140.21,030919,,,R,V*1A
$GNGGA,022554.00,3109.99908,N,12117.36771,E,4,12,0.72,6.7,M,9.5,M,1.0,2525*5D
$GNRMC,022555.00,A,3109.99692,N,12117.36939,E,9.347,148.25,030919,,,R,V*19
$GNGGA,022555.00,3109.99692,N,12117.36939,E,4,12,0.59,6.7,M,9.5,M,1.0,2525*5B
$GNRMC,022556.00,A,3109.99463,N,12117.37089,E,9.487,151.81,030919,,,R,V*18
$GNGGA,022556.00,3109.99463,N,12117.37089,E,4,12,0.71,6.6,M,9.5,M,1.0,2525*5C
$GNRMC,022557.00,A,3109.99219,N,12117.37238,E,9.992,152.11,030919,,,R,V*19
$GNGGA,022557.00,3109.99219,N,12117.37238,E,4,12,0.82,6.6,M,9.5,M,1.0,2525*52
$GNRMC,022558.00,A,3109.98970,N,12117.37382,E,9.915,152.44,030919,,,R,V*1C
$GNGGA,022558.00,3109.98970,N,12117.37382,E,4,12,0.75,6.7,M,9.5,M,1.0,2525*51
$GNRMC,022559.00,A,3109.98726,N,12117.37527,E,9.839,153.63,030919,,,R,V*12
$GNGGA,022559.00,3109.98726,N,12117.37527,E,4,12,0.68,6.7,M,9.5,M,1.0,2525*58
$GNRMC,022600.00,A,3109.98482,N,12117.37671,E,9.713,153.37,030919,,,R,V*16
$GNGGA,022600.00,3109.98482,N,12117.37671,E,4,12,0.61,6.6,M,9.5,M,1.0,2525*52
$GNRMC,022601.00,A,3109.98248,N,12117.37817,E,9.638,151.00,030919,,,R,V*17
$GNGGA,022601.00,3109.98248,N,12117.37817,E,4,12,0.53,6.6,M,9.5,M,1.0,2525*5C
$GNRMC,022602.00,A,3109.98017,N,12117.37965,E,9.295,151.18,030919,,,R,V*12
$GNGGA,022602.00,3109.98017,N,12117.37965,E,4,12,0.52,6.6,M,9.5,M,2.0,2525*51
$GNRMC,022603.00,A,3109.97799,N,12117.38104,E,8.878,151.05,030919,,,R,V*19
$GNGGA,022603.00,3109.97799,N,12117.38104,E,4,12,0.50,6.5,M,9.5,M,3.0,2525*5E
$GNRMC,022604.00,A,3109.97596,N,12117.38222,E,7.828,155.50,030919,,,R,V*1A
$GNGGA,022604.00,3109.97596,N,12117.38222,E,4,12,0.50,6.6,M,9.5,M,4.0,2525*57
$GNRMC,022605.00,A,3109.97397,N,12117.38295,E,7.346,166.17,030919,,,R,V*10
$GNGGA,022605.00,3109.97397,N,12117.38295,E,4,12,0.51,6.5,M,9.5,M,1.0,2525*5A
$GNRMC,022606.00,A,3109.97198,N,12117.38310,E,7.092,180.54,030919,,,R,V*17
$GNGGA,022606.00,3109.97198,N,12117.38310,E,4,12,0.50,6.6,M,9.5,M,1.0,2525*5A
$GNRMC,022607.00,A,3109.97009,N,12117.38270,E,6.864,194.81,030919,,,R,V*15
$GNGGA,022607.00,3109.97009,N,12117.38270,E,4,12,0.50,6.6,M,9.5,M,1.0,2525*55
$GNRMC,022608.00,A,3109.96837,N,12117.38179,E,6.727,209.18,030919,,,R,V*1B
$GNGGA,022608.00,3109.96837,N,12117.38179,E,4,12,0.50,6.6,M,9.5,M,1.0,2525*54
$GNRMC,022609.00,A,3109.96697,N,12117.38042,E,6.494,224.84,030919,,,R,V*16
$GNGGA,022609.00,3109.96697,N,12117.38042,E,4,12,0.50,6.6,M,9.5,M,1.0,2525*58
$GNRMC,022610.00,A,3109.96594,N,12117.37872,E,6.374,239.57,030919,,,R,V*11
$GNGGA,022610.00,3109.96594,N,12117.37872,E,4,12,0.54,6.6,M,9.5,M,1.0,2525*50
$GNRMC,022611.00,A,3109.96510,N,12117.37678,E,6.931,244.33,030919,,,R,V*1B
$GNGGA,022611.00,3109.96510,N,12117.37678,E,4,12,0.53,6.6,M,9.5,M,1.0,2525*5E
$GNRMC,022612.00,A,3109.96420,N,12117.37448,E,8.118,246.40,030919,,,R,V*10
$GNGGA,022612.00,3109.96420,N,12117.37448,E,4,12,0.52,6.6,M,9.5,M,1.0,2525*5F
$GNRMC,022613.00,A,3109.96321,N,12117.37206,E,8.252,243.92,030919,,,R,V*1C
$GNGGA,022613.00,3109.96321,N,12117.37206,E,4,12,0.53,6.7,M,9.5,M,1.0,2525*54
$GNRMC,022614.00,A,3109.96218,N,12117.36969,E,8.168,243.31,030919,,,R,V*10
$GNGGA,022614.00,3109.96218,N,12117.36969,E,4,12,0.52,6.6,M,9.5,M,1.0,2525*5B
$GNRMC,022615.00,A,3109.96119,N,12117.36734,E,8.078,243.78,030919,,,R,V*18
$GNGGA,022615.00,3109.96119,N,12117.36734,E,4,12,0.52,6.6,M,9.5,M,1.0,2525*5E
$GNRMC,022616.00,A,3109.96020,N,12117.36492,E,8.330,245.12,030919,,,R,V*1A
$GNGGA,022616.00,3109.96020,N,12117.36492,E,4,12,0.51,6.6,M,9.5,M,1.0,2525*5A
$GNRMC,022617.00,A,3109.95923,N,12117.36258,E,7.860,244.44,030919,,,R,V*11
$GNGGA,022617.00,3109.95923,N,12117.36258,E,4,12,0.52,6.6,M,9.5,M,1.0,2525*51
$GNRMC,022618.00,A,3109.95821,N,12117.36029,E,8.113,240.74,030919,,,R,V*1C
$GNGGA,022618.00,3109.95821,N,12117.36029,E,4,12,0.50,6.6,M,9.5,M,1.0,2525*5B
$GNRMC,022619.00,A,3109.95697,N,12117.35805,E,8.248,236.84,030919,,,R,V*18
$GNGGA,022619.00,3109.95697,N,12117.35805,E,4,12,0.49,6.5,M,9.5,M,1.0,2525*57
$GNRMC,022620.00,A,3109.95566,N,12117.35588,E,8.301,234.71,030919,,,R,V*13
$GNGGA,022620.00,3109.95566,N,12117.35588,E,4,12,0.50,6.5,M,9.5,M,1.0,2525*50
$GNRMC,022621.00,A,3109.95422,N,12117.35360,E,8.852,233.36,030919,,,R,V*1A
$GNGGA,022621.00,3109.95422,N,12117.35360,E,4,12,0.49,6.6,M,9.5,M,1.0,2525*5B
$GNRMC,022622.00,A,3109.95280,N,12117.35127,E,8.797,235.15,030919,,,R,V*17
$GNGGA,022622.00,3109.95280,N,12117.35127,E,4,12,0.52,6.6,M,9.5,M,1.0,2525*5D
$GNRMC,022623.00,A,3109.95153,N,12117.34873,E,9.304,241.59,030919,,,R,V*16
$GNGGA,022623.00,3109.95153,N,12117.34873,E,4,12,0.52,6.6,M,9.5,M,1.0,2525*58
$GNRMC,022624.00,A,3109.95036,N,12117.34594,E,9.555,245.06,030919,,,R,V*1B
$GNGGA,022624.00,3109.95036,N,12117.34594,E,4,12,0.52,6.5,M,9.5,M,1.0,2525*5A
$GNRMC,022625.00,A,3109.94945,N,12117.34308,E,9.390,251.95,030919,,,R,V*15
$GNGGA,022625.00,3109.94945,N,12117.34308,E,4,12,0.50,6.5,M,9.5,M,1.0,2525*56
$GNRMC,022626.00,A,3109.94869,N,12117.34001,E,10.129,254.00,030919,,,R,V*22
$GNGGA,022626.00,3109.94869,N,12117.34001,E,4,12,0.51,6.5,M,9.5,M,1.0,2525*51
$GNRMC,022627.00,A,3109.94772,N,12117.33682,E,10.597,248.76,030919,,,R,V*21
$GNGGA,022627.00,3109.94772,N,12117.33682,E,4,12,0.50,6.4,M,9.5,M,1.0,2525*5F
$GNRMC,022628.00,A,3109.94646,N,12117.33371,E,10.584,244.40,030919,,,R,V*2A
$GNGGA,022628.00,3109.94646,N,12117.33371,E,4,12,0.50,6.5,M,9.5,M,1.0,2525*5E
$GNRMC,022629.00,A,3109.94514,N,12117.33071,E,10.331,243.07,030919,,,R,V*20
$GNGGA,022629.00,3109.94514,N,12117.33071,E,4,12,0.50,6.5,M,9.5,M,1.0,2525*58
$GNRMC,022630.00,A,3109.94392,N,12117.32782,E,9.674,243.51,030919,,,R,V*15
$GNGGA,022630.00,3109.94392,N,12117.32782,E,4,12,0.49,6.5,M,9.5,M,2.0,2525*59
$GNRMC,022631.00,A,3109.94274,N,12117.32499,E,9.766,244.13,030919,,,R,V*17
$GNGGA,022631.00,3109.94274,N,12117.32499,E,4,12,0.50,6.5,M,9.5,M,3.0,2525*51
$GNRMC,022632.00,A,3109.94158,N,12117.32221,E,9.551,244.29,030919,,,R,V*13
$GNGGA,022632.00,3109.94158,N,12117.32221,E,4,12,0.50,6.5,M,9.5,M,1.0,2525*58
$GNRMC,022633.00,A,3109.94031,N,12117.31927,E,10.424,243.76,030919,,,R,V*24
$GNGGA,022633.00,3109.94031,N,12117.31927,E,4,12,0.51,6.4,M,9.5,M,1.0,2525*59
$GNRMC,022634.00,A,3109.93904,N,12117.31639,E,9.715,243.52,030919,,,R,V*14
$GNGGA,022634.00,3109.93904,N,12117.31639,E,4,12,0.50,6.5,M,9.5,M,1.0,2525*56
$GNRMC,022635.00,A,3109.93787,N,12117.31374,E,9.254,242.37,030919,,,R,V*1E
$GNGGA,022635.00,3109.93787,N,12117.31374,E,4,12,0.50,6.6,M,9.5,M,1.0,2525*5D
$GNRMC,022636.00,A,3109.93658,N,12117.31103,E,9.604,240.44,030919,,,R,V*1B
$GNGGA,022636.00,3109.93658,N,12117.31103,E,4,12,0.52,6.6,M,9.5,M,1.0,2525*5D
$GNRMC,022637.00,A,3109.93522,N,12117.30818,E,10.285,241.58,030919,,,R,V*2F
$GNGGA,022637.00,3109.93522,N,12117.30818,E,4,12,0.55,6.6,M,9.5,M,1.0,2525*57
$GNRMC,022638.00,A,3109.93385,N,12117.30511,E,10.977,243.81,030919,,,R,V*2F
$GNGGA,022638.00,3109.93385,N,12117.30511,E,4,12,0.55,6.5,M,9.5,M,1.0,2525*54
$GNRMC,022639.00,A,3109.93232,N,12117.30157,E,12.732,243.49,030919,,,R,V*2C
$GNGGA,022639.00,3109.93232,N,12117.30157,E,4,12,0.51,6.5,M,9.5,M,1.0,2525*5A
$GNRMC,022640.00,A,3109.93066,N,12117.29784,E,13.008,242.40,030919,,,R,V*26
$GNGGA,022640.00,3109.93066,N,12117.29784,E,4,12,0.51,6.5,M,9.5,M,1.0,2525*57
$GNRMC,022641.00,A,3109.92893,N,12117.29402,E,13.277,241.89,030919,,,R,V*25
$GNGGA,022641.00,3109.92893,N,12117.29402,E,4,12,0.54,6.5,M,9.5,M,1.0,2525*5D
$GNRMC,022642.00,A,3109.92720,N,12117.29019,E,13.341,241.21,030919,,,R,V*29
$GNGGA,022642.00,3109.92720,N,12117.29019,E,4,12,0.54,6.5,M,9.5,M,1.0,2525*57
$GNRMC,022643.00,A,3109.92538,N,12117.28646,E,13.229,240.31,030919,,,R,V*21
$GNGGA,022643.00,3109.92538,N,12117.28646,E,4,12,0.52,6.6,M,9.5,M,1.0,2525*55
$GNRMC,022644.00,A,3109.92365,N,12117.28275,E,12.794,242.20,030919,,,R,V*2C
$GNGGA,022644.00,3109.92365,N,12117.28275,E,4,12,0.54,6.5,M,9.5,M,1.0,2525*5D
$GNRMC,022645.00,A,3109.92212,N,12117.27928,E,11.692,242.70,030919,,,R,V*21
$GNGGA,022645.00,3109.92212,N,12117.27928,E,4,12,0.55,6.5,M,9.5,M,1.0,2525*50
$GNRMC,022646.00,A,3109.92071,N,12117.27616,E,10.534,242.04,030919,,,R,V*2A
$GNGGA,022646.00,3109.92071,N,12117.27616,E,4,12,0.51,6.5,M,9.5,M,1.0,2525*52
$GNRMC,022647.00,A,3109.91952,N,12117.27337,E,9.243,245.48,030919,,,R,V*16
$GNGGA,022647.00,3109.91952,N,12117.27337,E,4,12,0.52,6.6,M,9.5,M,1.0,2525*5E
$GNRMC,022648.00,A,3109.91887,N,12117.27080,E,7.942,258.21,030919,,,R,V*18
$GNGGA,022648.00,3109.91887,N,12117.27080,E,4,12,0.52,6.6,M,9.5,M,1.0,2525*57
$GNRMC,022649.00,A,3109.91889,N,12117.26844,E,7.057,276.44,030919,,,R,V*14
$GNGGA,022649.00,3109.91889,N,12117.26844,E,4,12,0.56,6.6,M,9.5,M,1.0,2525*5D
$GNRMC,022650.00,A,3109.91962,N,12117.26646,E,6.590,301.70,030919,,,R,V*1D
$GNGGA,022650.00,3109.91962,N,12117.26646,E,4,12,0.54,6.6,M,9.5,M,1.0,2525*5F
$GNRMC,022651.00,A,3109.92092,N,12117.26502,E,6.471,321.75,030919,,,R,V*13
$GNGGA,022651.00,3109.92092,N,12117.26502,E,4,12,0.52,6.5,M,9.5,M,1.0,2525*5D
$GNRMC,022652.00,A,3109.92252,N,12117.26375,E,7.298,326.83,030919,,,R,V*16
$GNGGA,022652.00,3109.92252,N,12117.26375,E,4,12,0.57,6.5,M,9.5,M,1.0,2525*53
$GNRMC,022653.00,A,3109.92459,N,12117.26237,E,9.123,332.60,030919,,,R,V*18
$GNGGA,022653.00,3109.92459,N,12117.26237,E,4,12,0.58,6.5,M,9.5,M,1.0,2525*57
$GNRMC,022654.00,A,3109.92729,N,12117.26087,E,11.352,334.59,030919,,,R,V*23
$GNGGA,022654.00,3109.92729,N,12117.26087,E,4,12,0.64,6.6,M,9.5,M,1.0,2525*51
$GNRMC,022655.00,A,3109.93021,N,12117.25929,E,11.539,334.09,030919,,,R,V*2C
$GNGGA,022655.00,3109.93021,N,12117.25929,E,4,12,0.62,6.5,M,9.5,M,1.0,2525*55
$GNRMC,022656.00,A,3109.93328,N,12117.25749,E,12.695,333.63,030919,,,R,V*20
$GNGGA,022656.00,3109.93328,N,12117.25749,E,4,12,1.04,6.5,M,9.5,M,1.0,2525*55
$GNRMC,022657.00,A,3109.93642,N,12117.25559,E,12.905,332.05,030919,,,R,V*2C
$GNGGA,022657.00,3109.93642,N,12117.25559,E,4,12,1.16,6.5,M,9.5,M,1.0,2525*5D
$GNRMC,022658.00,A,3109.93971,N,12117.25356,E,13.344,330.42,030919,,,R,V*2A
$GNGGA,022658.00,3109.93971,N,12117.25356,E,4,12,1.10,6.5,M,9.5,M,2.0,2525*51
$GNRMC,022659.00,A,3109.94302,N,12117.25152,E,13.625,333.48,030919,,,R,V*2F
$GNGGA,022659.00,3109.94302,N,12117.25152,E,4,12,1.10,6.6,M,9.4,M,3.0,2525*5C
$GNRMC,022700.00,A,3109.94645,N,12117.24953,E,13.790,333.41,030919,,,R,V*2A
$GNGGA,022700.00,3109.94645,N,12117.24953,E,4,12,1.00,6.6,M,9.4,M,1.0,2525*5C
$GNRMC,022701.00,A,3109.94982,N,12117.24749,E,13.600,332.00,030919,,,R,V*26
$GNGGA,022701.00,3109.94982,N,12117.24749,E,4,12,0.88,6.6,M,9.4,M,1.0,2525*5D
$GNRMC,022702.00,A,3109.95304,N,12117.24551,E,12.908,332.16,030919,,,R,V*2A
$GNGGA,022702.00,3109.95304,N,12117.24551,E,4,12,0.81,6.6,M,9.4,M,1.0,2525*59
$GNRMC,022703.00,A,3109.95612,N,12117.24360,E,12.354,332.14,030919,,,R,V*2C
$GNGGA,022703.00,3109.95612,N,12117.24360,E,4,12,0.65,6.6,M,9.4,M,1.0,2525*54
$GNRMC,022704.00,A,3109.95899,N,12117.24183,E,11.344,332.12,030919,,,R,V*2D
$GNGGA,022704.00,3109.95899,N,12117.24183,E,4,12,0.56,6.6,M,9.4,M,1.0,2525*51
$GNRMC,022705.00,A,3109.96166,N,12117.24027,E,10.590,333.75,030919,,,R,V*27
$GNGGA,022705.00,3109.96166,N,12117.24027,E,4,12,0.60,6.5,M,9.4,M,1.0,2525*53
$GNRMC,022706.00,A,3109.96413,N,12117.23883,E,9.627,333.19,030919,,,R,V*1F
$GNGGA,022706.00,3109.96413,N,12117.23883,E,4,12,0.55,6.5,M,9.4,M,1.0,2525*50
$GNRMC,022707.00,A,3109.96642,N,12117.23751,E,9.062,335.17,030919,,,R,V*17
$GNGGA,022707.00,3109.96642,N,12117.23751,E,4,12,0.55,6.6,M,9.4,M,1.0,2525*54
$GNRMC,022708.00,A,3109.96867,N,12117.23674,E,7.966,349.76,030919,,,R,V*18
$GNGGA,022708.00,3109.96867,N,12117.23674,E,4,12,0.53,6.5,M,9.4,M,1.0,2525*51
$GNRMC,022709.00,A,3109.97066,N,12117.23684,E,6.912,8.21,030919,,,R,V*18
$GNGGA,022709.00,3109.97066,N,12117.23684,E,4,12,0.52,6.6,M,9.4,M,1.0,2525*55
$GNRMC,022710.00,A,3109.97232,N,12117.23770,E,6.463,31.17,030919,,,R,V*2D
$GNGGA,022710.00,3109.97232,N,12117.23770,E,4,12,0.56,6.6,M,9.4,M,1.0,2525*50
$GNRMC,022711.00,A,3109.97354,N,12117.23917,E,6.357,52.61,030919,,,R,V*26
$GNGGA,022711.00,3109.97354,N,12117.23917,E,4,12,0.52,6.6,M,9.4,M,1.0,2525*5B
$GNRMC,022712.00,A,3109.97450,N,12117.24114,E,7.365,62.25,030919,,,R,V*29
$GNGGA,022712.00,3109.97450,N,12117.24114,E,4,12,0.55,6.6,M,9.4,M,1.0,2525*50
$GNRMC,022713.00,A,3109.97535,N,12117.24335,E,7.424,66.93,030919,,,R,V*20
$GNGGA,022713.00,3109.97535,N,12117.24335,E,4,12,0.52,6.6,M,9.4,M,1.0,2525*55
$GNRMC,022714.00,A,3109.97614,N,12117.24568,E,7.986,68.53,030919,,,R,V*2E
$GNGGA,022714.00,3109.97614,N,12117.24568,E,4,12,0.54,6.6,M,9.4,M,1.0,2525*5A
$GNRMC,022715.00,A,3109.97709,N,12117.24825,E,8.362,65.24,030919,,,R,V*24
$GNGGA,022715.00,3109.97709,N,12117.24825,E,4,12,0.52,6.6,M,9.4,M,1.0,2525*54
$GNRMC,022716.00,A,3109.97818,N,12117.25096,E,9.183,64.42,030919,,,R,V*24
$GNGGA,022716.00,3109.97818,N,12117.25096,E,4,12,0.58,6.6,M,9.4,M,1.0,2525*53
$GNRMC,022717.00,A,3109.97943,N,12117.25369,E,9.466,59.76,030919,,,R,V*2E
$GNGGA,022717.00,3109.97943,N,12117.25369,E,4,12,0.52,6.5,M,9.4,M,1.0,2525*57
$GNRMC,022718.00,A,3109.98079,N,12117.25647,E,10.157,60.15,030919,,,R,V*17
$GNGGA,022718.00,3109.98079,N,12117.25647,E,4,12,0.52,6.5,M,9.4,M,1.0,2525*5E
$GNRMC,022719.00,A,3109.98216,N,12117.25924,E,9.471,61.21,030919,,,R,V*28
$GNGGA,022719.00,3109.98216,N,12117.25924,E,4,12,0.52,6.6,M,9.5,M,1.0,2525*5C
$GNRMC,022720.00,A,3109.98338,N,12117.26196,E,9.239,62.82,030919,,,R,V*2D
$GNGGA,022720.00,3109.98338,N,12117.26196,E,4,12,0.52,6.6,M,9.5,M,1.0,2525*59
$GNRMC,022721.00,A,3109.98455,N,12117.26478,E,9.530,64.62,030919,,,R,V*23
$GNGGA,022721.00,3109.98455,N,12117.26478,E,4,12,0.52,6.5,M,9.5,M,1.0,2525*52
$GNRMC,022722.00,A,3109.98574,N,12117.26753,E,9.251,62.24,030919,,,R,V*2C
$GNGGA,022722.00,3109.98574,N,12117.26753,E,4,12,0.52,6.5,M,9.5,M,1.0,2525*59
$GNRMC,022723.00,A,3109.98694,N,12117.27021,E,9.647,62.37,030919,,,R,V*22
$GNGGA,022723.00,3109.98694,N,12117.27021,E,4,12,0.52,6.5,M,9.5,M,1.0,2525*56
$GNRMC,022724.00,A,3109.98825,N,12117.27307,E,9.982,61.68,030919,,,R,V*29
$GNGGA,022724.00,3109.98825,N,12117.27307,E,4,12,0.52,6.5,M,9.5,M,1.0,2525*52
$GNRMC,022725.00,A,3109.98962,N,12117.27616,E,11.041,63.29,030919,,,R,V*17
$GNGGA,022725.00,3109.98962,N,12117.27616,E,4,12,0.52,6.6,M,9.5,M,2.0,2525*54
$GNRMC,022726.00,A,3109.99103,N,12117.27944,E,11.553,63.33,030919,,,R,V*1F
$GNGGA,022726.00,3109.99103,N,12117.27944,E,4,12,0.52,6.6,M,9.5,M,3.0,2525*50
$GNRMC,022727.00,A,3109.99257,N,12117.28292,E,12.158,62.37,030919,,,R,V*1A
$GNGGA,022727.00,3109.99257,N,12117.28292,E,4,12,0.52,6.6,M,9.5,M,1.0,2525*5E
$GNRMC,022728.00,A,3109.99408,N,12117.28626,E,11.424,62.61,030919,,,R,V*1C
$GNGGA,022728.00,3109.99408,N,12117.28626,E,4,12,0.52,6.6,M,9.5,M,1.0,2525*56
$GNRMC,022729.00,A,3109.99553,N,12117.28962,E,11.717,63.09,030919,,,R,V*11
$GNGGA,022729.00,3109.99553,N,12117.28962,E,4,12,0.52,6.6,M,9.5,M,1.0,2525*57
$GNRMC,022730.00,A,3109.99701,N,12117.29291,E,11.287,62.06,030919,,,R,V*18
$GNGGA,022730.00,3109.99701,N,12117.29291,E,4,12,0.52,6.6,M,9.5,M,1.0,2525*5C
$GNRMC,022731.00,A,3109.99844,N,12117.29616,E,11.410,63.09,030919,,,R,V*1A
$GNGGA,022731.00,3109.99844,N,12117.29616,E,4,12,0.52,6.6,M,9.5,M,1.0,2525*58
$GNRMC,022732.00,A,3109.99984,N,12117.29939,E,10.862,63.89,030919,,,R,V*16
$GNGGA,022732.00,3109.99984,N,12117.29939,E,4,12,0.51,6.6,M,9.5,M,1.0,2525*57
$GNRMC,022733.00,A,3110.00115,N,12117.30244,E,10.517,63.02,030919,,,R,V*1A
$GNGGA,022733.00,3110.00115,N,12117.30244,E,4,12,0.52,6.6,M,9.5,M,1.0,2525*54
$GNRMC,022734.00,A,3110.00259,N,12117.30569,E,11.667,62.77,030919,,,R,V*18
$GNGGA,022734.00,3110.00259,N,12117.30569,E,4,12,0.52,6.6,M,9.5,M,1.0,2525*50
$GNRMC,022735.00,A,3110.00416,N,12117.30927,E,12.564,62.72,030919,,,R,V*14
$GNGGA,022735.00,3110.00416,N,12117.30927,E,4,12,0.52,6.6,M,9.5,M,1.0,2525*5A
$GNRMC,022736.00,A,3110.00570,N,12117.31272,E,11.734,63.04,030919,,,R,V*18
$GNGGA,022736.00,3110.00570,N,12117.31272,E,4,12,0.54,6.6,M,9.5,M,1.0,2525*54
$GNRMC,022737.00,A,3110.00719,N,12117.31599,E,11.175,62.34,030919,,,R,V*17
$GNGGA,022737.00,3110.00719,N,12117.31599,E,4,12,0.51,6.6,M,9.5,M,1.0,2525*5F
$GNRMC,022738.00,A,3110.00855,N,12117.31902,E,10.385,61.98,030919,,,R,V*18
$GNGGA,022738.00,3110.00855,N,12117.31902,E,4,12,0.53,6.6,M,9.5,M,1.0,2525*5B
$GNRMC,022739.00,A,3110.00981,N,12117.32195,E,9.935,63.89,030919,,,R,V*2F
$GNGGA,022739.00,3110.00981,N,12117.32195,E,4,12,0.51,6.6,M,9.5,M,1.0,2525*55
$GNRMC,022740.00,A,3110.01104,N,12117.32479,E,9.849,62.76,030919,,,R,V*29
$GNGGA,022740.00,3110.01104,N,12117.32479,E,4,12,0.51,6.6,M,9.5,M,1.0,2525*58
$GNRMC,022741.00,A,3110.01227,N,12117.32749,E,9.114,61.82,030919,,,R,V*23
$GNGGA,022741.00,3110.01227,N,12117.32749,E,4,12,0.51,6.6,M,9.5,M,1.0,2525*5B
$GNRMC,022742.00,A,3110.01340,N,12117.32994,E,8.473,61.53,030919,,,R,V*27
$GNGGA,022742.00,3110.01340,N,12117.32994,E,4,12,0.51,6.6,M,9.5,M,1.0,2525*56
$GNRMC,022743.00,A,3110.01445,N,12117.33220,E,7.781,61.72,030919,,,R,V*23
$GNGGA,022743.00,3110.01445,N,12117.33220,E,4,12,0.49,6.6,M,9.5,M,1.0,2525*59
$GNRMC,022744.00,A,3110.01523,N,12117.33392,E,4.454,61.95,030919,,,R,V*2C
$GNGGA,022744.00,3110.01523,N,12117.33392,E,4,12,0.49,6.6,M,9.5,M,1.0,2525*57
$GNRMC,022745.00,A,3110.01534,N,12117.33417,E,0.052,,030919,,,R,V*02
$GNGGA,022745.00,3110.01534,N,12117.33417,E,4,12,0.49,6.6,M,9.5,M,1.0,2525*5A
$GNRMC,022746.00,A,3110.01534,N,12117.33417,E,0.046,,030919,,,R,V*04
$GNGGA,022746.00,3110.01534,N,12117.33417,E,4,12,0.49,6.6,M,9.5,M,1.0,2525*59
$GNRMC,022747.00,A,3110.01539,N,12117.33426,E,0.473,60.62,030919,,,R,V*24
$GNGGA,022747.00,3110.01539,N,12117.33426,E,4,12,0.49,6.6,M,9.5,M,1.0,2525*57
$GNRMC,022748.00,A,3110.01555,N,12117.33464,E,1.737,63.39,030919,,,R,V*28
$GNGGA,022748.00,3110.01555,N,12117.33464,E,4,12,0.49,6.6,M,9.5,M,1.0,2525*54
$GNRMC,022749.00,A,3110.01581,N,12117.33546,E,3.224,71.59,030919,,,R,V*21
$GNGGA,022749.00,3110.01581,N,12117.33546,E,4,12,0.49,6.6,M,9.5,M,1.0,2525*5D
$GNRMC,022750.00,A,3110.01607,N,12117.33681,E,4.642,80.00,030919,,,R,V*2D
$GNGGA,022750.00,3110.01607,N,12117.33681,E,4,12,0.50,6.6,M,9.5,M,1.0,2525*58
$GNRMC,022751.00,A,3110.01600,N,12117.33849,E,5.400,98.35,030919,,,R,V*2B
$GNGGA,022751.00,3110.01600,N,12117.33849,E,4,12,0.50,6.6,M,9.5,M,1.0,2525*54
$GNRMC,022752.00,A,3110.01535,N,12117.34010,E,5.529,122.23,030919,,,R,V*13
$GNGGA,022752.00,3110.01535,N,12117.34010,E,4,12,0.51,6.6,M,9.5,M,1.0,2525*50
$GNRMC,022753.00,A,3110.01428,N,12117.34145,E,5.753,135.50,030919,,,R,V*13
$GNGGA,022753.00,3110.01428,N,12117.34145,E,4,12,0.52,6.6,M,9.5,M,2.0,2525*5D
$GNRMC,022754.00,A,3110.01300,N,12117.34263,E,5.919,141.75,030919,,,R,V*1A
$GNGGA,022754.00,3110.01300,N,12117.34263,E,4,12,0.56,6.7,M,9.5,M,1.0,2525*56
$GNRMC,022755.00,A,3110.01163,N,12117.34384,E,6.463,142.82,030919,,,R,V*1C
$GNGGA,022755.00,3110.01163,N,12117.34384,E,4,12,0.56,6.6,M,9.5,M,1.0,2525*59
$GNRMC,022756.00,A,3110.01010,N,12117.34524,E,7.164,141.39,030919,,,R,V*16
$GNGGA,022756.00,3110.01010,N,12117.34524,E,4,12,0.58,6.6,M,9.5,M,1.0,2525*5D
$GNRMC,022757.00,A,3110.00856,N,12117.34676,E,7.241,138.22,030919,,,R,V*18
$GNGGA,022757.00,3110.00856,N,12117.34676,E,4,12,0.59,6.6,M,9.5,M,1.0,2525*52
$GNRMC,022758.00,A,3110.00730,N,12117.34856,E,7.214,124.31,030919,,,R,V*1B
$GNGGA,022758.00,3110.00730,N,12117.34856,E,4,12,0.66,6.7,M,9.5,M,1.0,2525*53
$GNRMC,022759.00,A,3110.00631,N,12117.35066,E,7.442,117.21,030919,,,R,V*14
$GNGGA,022759.00,3110.00631,N,12117.35066,E,4,12,0.60,6.6,M,9.5,M,1.0,2525*5F
$GNRMC,022800.00,A,3110.00544,N,12117.35292,E,7.614,113.36,030919,,,R,V*1C
$GNGGA,022800.00,3110.00544,N,12117.35292,E,4,12,0.75,6.6,M,9.5,M,1.0,2525*50
$GNRMC,022801.00,A,3110.00470,N,12117.35523,E,7.598,108.76,030919,,,R,V*1F
$GNGGA,022801.00,3110.00470,N,12117.35523,E,4,12,0.74,6.6,M,9.5,M,1.0,2525*5B
$GNRMC,022802.00,A,3110.00409,N,12117.35755,E,7.529,106.91,030919,,,R,V*1C
$GNGGA,022802.00,3110.00409,N,12117.35755,E,4,12,0.68,6.6,M,9.5,M,1.0,2525*58
$GNRMC,022803.00,A,3110.00353,N,12117.35985,E,7.261,105.18,030919,,,R,V*1F
$GNGGA,022803.00,3110.00353,N,12117.35985,E,4,12,0.72,6.6,M,9.5,M,1.0,2525*59
